[[{"id":"1010908662","status":"active","title":"Grindelwald: First - LIVE ( m.ü.M)","location":{"city":"Grindelwald","region":"Bern","region_code":"CH.BE","country":"Switzerland","country_code":"CH","continent":"Europe","continent_code":"EU","latitude":46.658627,"longitude":8.055725,"timezone":"Europe/Zurich","wikipedia":"https://de.wikipedia.org/wiki/Grindelwald"}},{"id":"1040549429","status":"active","title":"Wildhaus-Alt St. Johann: Chäserrugg","location":{"city":"Wildhaus-Alt St. Johann","region":"Canton of St. Gallen","region_code":"CH.SG","country":"Switzerland","country_code":"CH","continent":"Europe","continent_code":"EU","latitude":47.155297,"longitude":9.313016,"timezone":"Europe/Zurich","wikipedia":"https://de.wikipedia.org/wiki/Wildhaus-Alt St. Johann"}},{"id":"1068223161","status":"active","title":"Adelboden: Engstligenalp bei","location":{"city":"Adelboden","region":"Bern","region_code":"CH.BE","country":"Switzerland","country_code":"CH","continent":"Europe","continent_code":"EU","latitude":46.445092,"longitude":7.563958,"timezone":"Europe/Zurich","wikipedia":"https://de.wikipedia.org/wiki/Adelboden"}},{"id":"1070189674","status":"active","title":"Meyrin: Aéroport","location":{"city":"Meyrin","region":"Geneva","region_code":"CH.GE","country":"Switzerland","country_code":"CH","continent":"Europe","continent_code":"EU","latitude":46.22575,"longitude":6.101918,"timezone":"Europe/Zurich","wikipedia":"https://fr.wikipedia.org/wiki/Meyrin"}},{"id":"1109590430","status":"active","title":"Wildhaus-Alt St. Johann: Iltios - Chäserrugg","location":{"city":"Wildhaus-Alt St. Johann","region":"Canton of St. Gallen","region_code":"CH.SG","country":"Switzerland","country_code":"CH","continent":"Europe","continent_code":"EU","latitude":47.185235,"longitude":9.31175,"timezone":"Europe/Zurich","wikipedia":"https://de.wikipedia.org/wiki/Wildhaus-Alt St. Johann"}},{"id":"1113821046","status":"active","title":"Stein: Toggenburg Alpakas","location":{"city":"Stein","region":"Canton of St. Gallen","region_code":"CH.SG","country":"Switzerland","country_code":"CH","continent":"Europe","continent_code":"EU","latitude":47.196711,"longitude":9.223709,"timezone":"Europe/Zurich","wikipedia":""}},{"id":"1118660406","status":"active","title":"Martigny: Place Centrale de","location":{"city":"Martigny","region":"Valais","region_code":"CH.VS","country":"Switzerland","country_code":"CH","continent":"Europe","continent_code":"EU","latitude":46.101042,"longitude":7.072561,"timezone":"Europe/Zurich","wikipedia":"https://fr.wikipedia.org/wiki/Martigny"}},{"id":"1154342436","status":"active","title":"Lausanne › South-East: Centre","location":{"city":"Lausanne","region":"Canton of Vaud","region_code":"CH.VD","country":"Switzerland","country_code":"CH","continent":"Europe","continent_code":"EU","latitude":46.526118,"longitude":6.631472,"timezone":"Europe/Zurich","wikipedia":"https://fr.wikipedia.org/wiki/Lausanne"}},{"id":"1169738193","status":"active","title":"Devils Lake: Main Street","location":{"city":"Devils Lake","region":"North Dakota","region_code":"US.ND","country":"United States","country_code":"US","continent":"North America","continent_code":"NA","latitude":48.111629,"longitude":-98.858178,"timezone":"America/Chicago","wikipedia":"https://en.wikipedia.org/wiki/Devils Lake, North Dakota"}},{"id":"1171032474","status":"active","title":"Zurich › North: Best Carwash - Hardbrücke - Jumbo compact Zürich - Hard One - Abaton - KV Zürich Business School - Escher Wyss","location":{"city":"Zurich","region":"Zurich","region_code":"CH.ZH","country":"Switzerland","country_code":"CH","continent":"Europe","continent_code":"EU","latitude":47.38777,"longitude":8.519179,"timezone":"Europe/Zurich","wikipedia":"https://de.wikipedia.org/wiki/Zürich"}},{"id":"1171052360","status":"active","title":"Blankenberge › West: O'Neill Beach Club","location":{"city":"Blankenberge","region":"Flanders","region_code":"BE.VLG","country":"Belgium","country_code":"BE","continent":"Europe","continent_code":"EU","latitude":51.319942,"longitude":3.14088,"timezone":"Europe/Brussels","wikipedia":"https://nl.wikipedia.org/wiki/Blankenberge"}},{"id":"1171132469","status":"active","title":"Kawaihau: Kauai island live weather in","location":{"city":"Kawaihau","region":"Hawaii","region_code":"US.HI","country":"United States","country_code":"US","continent":"North America","continent_code":"NA","latitude":22.082472,"longitude":-159.315308,"timezone":"Pacific/Honolulu","wikipedia":""}},{"id":"1179853135","status":"active","title":"Syd: Sydney - Sydney Opera House - Sydney Harbour Bridge","location":{"city":"Syd","region":"New South Wales","region_code":"AU.02","country":"Australia","country_code":"AU","continent":"Oceania","continent_code":"OC","latitude":-33.864857,"longitude":151.208782,"timezone":"Australia/Sydney","wikipedia":"https://en.wikipedia.org/wiki/Sydney"}},{"id":"1180633999","status":"active","title":"Lake Tekapo","location":{"city":"Lake Tekapo","region":"Canterbury Region","region_code":"NZ.E9","country":"New Zealand","country_code":"NZ","continent":"Oceania","continent_code":"OC","latitude":-44.006645,"longitude":170.486698,"timezone":"Pacific/Auckland","wikipedia":""}},{"id":"1181820895","status":"active","title":"Cabocan: Pontao","location":{"city":"Cabocan","region":"Sal Municipality","region_code":"CV.08","country":"Cape Verde","country_code":"CV","continent":"Africa","continent_code":"AF","latitude":16.597095,"longitude":-22.904606,"timezone":"Atlantic/Cape_Verde","wikipedia":""}},{"id":"1181821380","status":"active","title":"Sharm el-Sheikh: Dive Center, Hotel Helnan","location":{"city":"Sharm el-Sheikh","region":"South Sinai Governorate","region_code":"EG.26","country":"Egypt","country_code":"EG","continent":"Africa","continent_code":"AF","latitude":27.907144,"longitude":34.327254,"timezone":"Africa/Cairo","wikipedia":"https://en.wikipedia.org/wiki/Sharm el-Sheikh"}},{"id":"1181920571","status":"active","title":"Bad Gastein","location":{"city":"Bad Gastein","region":"Salzburg","region_code":"AT.05","country":"Austria","country_code":"AT","continent":"Europe","continent_code":"EU","latitude":47.115117,"longitude":13.127203,"timezone":"Europe/Vienna","wikipedia":""}},{"id":"1183493206","status":"active","title":"Knokke-Heist: Knokke Surfers Paradise","location":{"city":"Knokke-Heist","region":"Flanders","region_code":"BE.VLG","country":"Belgium","country_code":"BE","continent":"Europe","continent_code":"EU","latitude":51.360416,"longitude":3.323831,"timezone":"Europe/Brussels","wikipedia":"https://nl.wikipedia.org/wiki/Knokke-Heist"}},{"id":"1183494194","status":"active","title":"De Panne: Sea promenade beach strand","location":{"city":"De Panne","region":"Flanders","region_code":"BE.VLG","country":"Belgium","country_code":"BE","continent":"Europe","continent_code":"EU","latitude":51.103845,"longitude":2.590714,"timezone":"Europe/Brussels","wikipedia":"https://nl.wikipedia.org/wiki/De Panne"}},{"id":"1184429220","status":"active","title":"Naples","location":{"city":"Naples","region":"Texas","region_code":"US.TX","country":"United States","country_code":"US","continent":"North America","continent_code":"NA","latitude":26.155438,"longitude":-81.793213,"timezone":"America/Chicago","wikipedia":""}},{"id":"1184431657","status":"active","title":"Lakeland: Washington","location":{"city":"Lakeland","region":"Florida","region_code":"US.FL","country":"United States","country_code":"US","continent":"North America","continent_code":"NA","latitude":38.990437,"longitude":-76.937256,"timezone":"America/New_York","wikipedia":"https://en.wikipedia.org/wiki/Lakeland, Florida"}},{"id":"1185042521","status":"active","title":"College Station: Fairbanks","location":{"city":"College Station","region":"Texas","region_code":"US.TX","country":"United States","country_code":"US","continent":"North America","continent_code":"NA","latitude":64.859432,"longitude":-147.850531,"timezone":"America/Chicago","wikipedia":""}},{"id":"1185042612","status":"active","title":"Fort Davis","location":{"city":"Fort Davis","region":"Texas","region_code":"US.TX","country":"United States","country_code":"US","continent":"North America","continent_code":"NA","latitude":30.672467,"longitude":-104.022074,"timezone":"America/Chicago","wikipedia":""}},{"id":"1185046980","status":"active","title":"Schaumburg: Buffalo Grove","location":{"city":"Schaumburg","region":"Illinois","region_code":"US.IL","country":"United States","country_code":"US","continent":"North America","continent_code":"NA","latitude":42.025706,"longitude":-88.067951,"timezone":"America/Chicago","wikipedia":"https://en.wikipedia.org/wiki/Schaumburg, Illinois"}},{"id":"1185094232","status":"active","title":"Moscow: Skobelevskaya , www.butovonet.ru","location":{"city":"Moscow","region":"Moscow","region_code":"RU.48","country":"Russia","country_code":"RU","continent":"Europe","continent_code":"EU","latitude":55.547475,"longitude":37.556269,"timezone":"Europe/Moscow","wikipedia":""}},{"id":"1185560429","status":"active","title":"Conroe","location":{"city":"Conroe","region":"Texas","region_code":"US.TX","country":"United States","country_code":"US","continent":"North America","continent_code":"NA","latitude":30.432246,"longitude":-95.586376,"timezone":"America/Chicago","wikipedia":"https://en.wikipedia.org/wiki/Conroe, Texas"}},{"id":"1185650817","status":"active","title":"Tacoma: Egyesült Államok","location":{"city":"Tacoma","region":"Washington","region_code":"US.WA","country":"United States","country_code":"US","continent":"North America","continent_code":"NA","latitude":47.244859,"longitude":-122.437331,"timezone":"America/Los_Angeles","wikipedia":"https://en.wikipedia.org/wiki/Tacoma, Washington"}},{"id":"1185651642","status":"active","title":"Ames","location":{"city":"Ames","region":"Iowa","region_code":"US.IA","country":"United States","country_code":"US","continent":"North America","continent_code":"NA","latitude":42.024144,"longitude":-93.645712,"timezone":"America/Chicago","wikipedia":"https://en.wikipedia.org/wiki/Ames, Iowa"}},{"id":"1186650999","status":"active","title":"Judenburg: Blick vom Planetarium im Stadtturm","location":{"city":"Judenburg","region":"Styria","region_code":"AT.06","country":"Austria","country_code":"AT","continent":"Europe","continent_code":"EU","latitude":47.168211,"longitude":14.661346,"timezone":"Europe/Vienna","wikipedia":"https://de.wikipedia.org/wiki/Judenburg"}},{"id":"1186859492","status":"active","title":"Austin","location":{"city":"Austin","region":"Texas","region_code":"US.TX","country":"United States","country_code":"US","continent":"North America","continent_code":"NA","latitude":30.344754,"longitude":-97.775169,"timezone":"America/Chicago","wikipedia":"https://en.wikipedia.org/wiki/Austin, Texas"}},{"id":"1188154346","status":"active","title":"Oberalba: Oberalbacam","location":{"city":"Oberalba","region":"Hesse","region_code":"DE.05","country":"Germany","country_code":"DE","continent":"Europe","continent_code":"EU","latitude":50.723729,"longitude":10.096017,"timezone":"Europe/Berlin","wikipedia":""}},{"id":"1191759082","status":"active","title":"Schwarzenberg: Scheibenberg","location":{"city":"Schwarzenberg","region":"Saxony","region_code":"DE.13","country":"Germany","country_code":"DE","continent":"Europe","continent_code":"EU","latitude":50.535435,"longitude":12.766423,"timezone":"Europe/Berlin","wikipedia":"https://de.wikipedia.org/wiki/Schwarzenberg/Erzgeb."}},{"id":"1192024953","status":"active","title":"Varazdin Breg: Zagreb - Place","location":{"city":"Varazdin Breg","region":"Varaždin County","region_code":"HR.16","country":"Croatia","country_code":"HR","continent":"Europe","continent_code":"EU","latitude":46.307825,"longitude":16.337944,"timezone":"Europe/Zagreb","wikipedia":""}},{"id":"1196582275","status":"active","title":"Ernen: Mühlebach","location":{"city":"Ernen","region":"Valais","region_code":"CH.VS","country":"Switzerland","country_code":"CH","continent":"Europe","continent_code":"EU","latitude":46.408082,"longitude":8.158207,"timezone":"Europe/Zurich","wikipedia":"https://de.wikipedia.org/wiki/Ernen"}},{"id":"1196779927","status":"active","title":"Arona: Parque Santiago IV","location":{"city":"Arona","region":"Canary Islands","region_code":"ES.53","country":"Spain","country_code":"ES","continent":"Europe","continent_code":"EU","latitude":28.055521,"longitude":-16.735042,"timezone":"Atlantic/Canary","wikipedia":"https://es.wikipedia.org/wiki/Arona"}},{"id":"1196787852","status":"active","title":"Grafenhausen: Birkenfeld","location":{"city":"Grafenhausen","region":"Baden-Württemberg","region_code":"DE.01","country":"Germany","country_code":"DE","continent":"Europe","continent_code":"EU","latitude":48.862573,"longitude":8.580746,"timezone":"Europe/Berlin","wikipedia":""}},{"id":"1199286252","status":"active","title":"Ottobeuren: Marktplatz","location":{"city":"Ottobeuren","region":"Bavaria","region_code":"DE.02","country":"Germany","country_code":"DE","continent":"Europe","continent_code":"EU","latitude":47.941331,"longitude":10.299983,"timezone":"Europe/Berlin","wikipedia":"https://de.wikipedia.org/wiki/Ottobeuren"}},{"id":"1199888126","status":"active","title":"Tortoreto › East: Lido","location":{"city":"Tortoreto","region":"Abruzzo","region_code":"IT.01","country":"Italy","country_code":"IT","continent":"Europe","continent_code":"EU","latitude":42.797227,"longitude":13.946264,"timezone":"Europe/Rome","wikipedia":"https://it.wikipedia.org/wiki/Tortoreto"}},{"id":"1200417740","status":"active","title":"Diano Marina: Hotel Gabriella Beach & swimming-pool","location":{"city":"Diano Marina","region":"Liguria","region_code":"IT.08","country":"Italy","country_code":"IT","continent":"Europe","continent_code":"EU","latitude":43.915189,"longitude":8.090934,"timezone":"Europe/Rome","wikipedia":"https://it.wikipedia.org/wiki/Diano Marina"}},{"id":"1203277615","status":"active","title":"Lübeck: Luebecker Altstadt","location":{"city":"Lübeck","region":"Schleswig-Holstein","region_code":"DE.10","country":"Germany","country_code":"DE","continent":"Europe","continent_code":"EU","latitude":53.872014,"longitude":10.657382,"timezone":"Europe/Berlin","wikipedia":"https://de.wikipedia.org/wiki/Lübeck"}},{"id":"1203507699","status":"active","title":"Senigallia: Vista della città dal porto","location":{"city":"Senigallia","region":"The Marches","region_code":"IT.10","country":"Italy","country_code":"IT","continent":"Europe","continent_code":"EU","latitude":43.722575,"longitude":13.222604,"timezone":"Europe/Rome","wikipedia":"https://it.wikipedia.org/wiki/Senigallia"}},{"id":"1204914512","status":"active","title":"Angern an der March","location":{"city":"Angern an der March","region":"Lower Austria","region_code":"AT.03","country":"Austria","country_code":"AT","continent":"Europe","continent_code":"EU","latitude":48.380511,"longitude":16.828802,"timezone":"Europe/Vienna","wikipedia":""}},{"id":"1206537852","status":"active","title":"Hanko: Hangö Stevedoring Webcam","location":{"city":"Hanko","region":"Southern Finland","region_code":"FI.07","country":"Finland","country_code":"FI","continent":"Europe","continent_code":"EU","latitude":59.822538,"longitude":22.959623,"timezone":"Europe/Helsinki","wikipedia":"https://fi.wikipedia.org/wiki/Hanko"}},{"id":"1208269321","status":"active","title":"Donaustadt: AFSA Freestyle Waterramp - Donauinsel","location":{"city":"Donaustadt","region":"Vienna","region_code":"AT.09","country":"Austria","country_code":"AT","continent":"Europe","continent_code":"EU","latitude":48.211643,"longitude":16.439246,"timezone":"Europe/Vienna","wikipedia":"https://de.wikipedia.org/wiki/Donaustadt"}},{"id":"1208375266","status":"active","title":"Camargo › South: Bahía de Santander › South: Bay of Santander","location":{"city":"Camargo","region":"Cantabria","region_code":"ES.39","country":"Spain","country_code":"ES","continent":"Europe","continent_code":"EU","latitude":43.436958,"longitude":-3.821182,"timezone":"Europe/Madrid","wikipedia":"https://es.wikipedia.org/wiki/Camargo (Cantabria)"}},{"id":"1208635196","status":"active","title":"Saint-Dizier: Webcam de","location":{"city":"Saint-Dizier","region":"Grand Est","region_code":"FR.44","country":"France","country_code":"FR","continent":"Europe","continent_code":"EU","latitude":48.637375,"longitude":4.947581,"timezone":"Europe/Paris","wikipedia":"https://fr.wikipedia.org/wiki/Saint-Dizier"}},{"id":"1208682005","status":"active","title":"Caussols: Côte d'Azur","location":{"city":"Caussols","region":"Provence-Alpes-Côte d'Azur","region_code":"FR.93","country":"France","country_code":"FR","continent":"Europe","continent_code":"EU","latitude":43.751877,"longitude":6.924219,"timezone":"Europe/Paris","wikipedia":"https://fr.wikipedia.org/wiki/Caussols"}},{"id":"1208682043","status":"active","title":"Fayence","location":{"city":"Fayence","region":"Provence-Alpes-Côte d'Azur","region_code":"FR.93","country":"France","country_code":"FR","continent":"Europe","continent_code":"EU","latitude":43.608022,"longitude":6.669881,"timezone":"Europe/Paris","wikipedia":"https://fr.wikipedia.org/wiki/Fayence"}},{"id":"1208783935","status":"active","title":"Plymouth: Lighthouse","location":{"city":"Plymouth","region":"England","region_code":"GB.ENG","country":"United Kingdom","country_code":"GB","continent":"Europe","continent_code":"EU","latitude":50.364646,"longitude":-4.143125,"timezone":"Europe/London","wikipedia":"https://en.wikipedia.org/wiki/Plymouth"}},{"id":"1210504359","status":"active","title":"Olite: Plaza Carlos III de","location":{"city":"Olite","region":"Navarre","region_code":"ES.32","country":"Spain","country_code":"ES","continent":"Europe","continent_code":"EU","latitude":42.481308,"longitude":-1.651447,"timezone":"Europe/Madrid","wikipedia":"https://es.wikipedia.org/wiki/Olite (Navarra)"}}],[{"id":"1211064603","status":"active","title":"Portoferraio: Live webcam & meteo - Isola d'Elba","location":{"city":"Portoferraio","region":"Tuscany","region_code":"IT.16","country":"Italy","country_code":"IT","continent":"Europe","continent_code":"EU","latitude":42.815866,"longitude":10.321827,"timezone":"Europe/Rome","wikipedia":"https://it.wikipedia.org/wiki/Portoferraio"}},{"id":"1211115545","status":"active","title":"Stralsund: Rügenbrücke","location":{"city":"Stralsund","region":"Mecklenburg-Vorpommern","region_code":"DE.12","country":"Germany","country_code":"DE","continent":"Europe","continent_code":"EU","latitude":54.306233,"longitude":13.104415,"timezone":"Europe/Berlin","wikipedia":"https://de.wikipedia.org/wiki/Stralsund"}},{"id":"1212847240","status":"active","title":"Beaucourt: Live Cam","location":{"city":"Beaucourt","region":"Bourgogne-Franche-Comte","region_code":"FR.27","country":"France","country_code":"FR","continent":"Europe","continent_code":"EU","latitude":47.484637,"longitude":6.927034,"timezone":"Europe/Paris","wikipedia":"https://fr.wikipedia.org/wiki/Beaucourt"}},{"id":"1213440876","status":"active","title":"Flushing: Boulevard de Ruyter","location":{"city":"Flushing","region":"Zeeland","region_code":"NL.10","country":"Netherlands","country_code":"NL","continent":"Europe","continent_code":"EU","latitude":51.440186,"longitude":3.573883,"timezone":"Europe/Amsterdam","wikipedia":"https://nl.wikipedia.org/wiki/Vlissingen"}},{"id":"1213958481","status":"active","title":"Estavayer: Golf de Vuissens (CH)","location":{"city":"Estavayer","region":"Fribourg","region_code":"CH.FR","country":"Switzerland","country_code":"CH","continent":"Europe","continent_code":"EU","latitude":46.73614,"longitude":6.766527,"timezone":"Europe/Zurich","wikipedia":"https://fr.wikipedia.org/wiki/Estavayer"}},{"id":"1214075000","status":"active","title":"Breskens: Westerschelde Ferry","location":{"city":"Breskens","region":"Zeeland","region_code":"NL.10","country":"Netherlands","country_code":"NL","continent":"Europe","continent_code":"EU","latitude":51.398963,"longitude":3.55507,"timezone":"Europe/Amsterdam","wikipedia":"https://nl.wikipedia.org/wiki/Breskens"}},{"id":"1215505227","status":"active","title":"Cheb","location":{"city":"Cheb","region":"Northwest","region_code":"CZ.81","country":"Czechia","country_code":"CZ","continent":"Europe","continent_code":"EU","latitude":50.067511,"longitude":12.443089,"timezone":"Europe/Prague","wikipedia":"https://cs.wikipedia.org/wiki/Cheb"}},{"id":"1215684386","status":"active","title":"Rtyne v Podkrkonosi: Rtyně v Podkrkonoší","location":{"city":"Rtyne v Podkrkonosi","region":"Northeast","region_code":"CZ.83","country":"Czechia","country_code":"CZ","continent":"Europe","continent_code":"EU","latitude":50.505048,"longitude":16.069286,"timezone":"Europe/Prague","wikipedia":"https://cs.wikipedia.org/wiki/Rtyně v Podkrkonoší"}},{"id":"1215696544","status":"active","title":"Chvalcov › South-West: › South-West: Sv. Hostýn, bazilika: Sv. Hostýn","location":{"city":"Chvalcov","region":"Central Moravia","region_code":"CZ.84","country":"Czechia","country_code":"CZ","continent":"Europe","continent_code":"EU","latitude":49.385394,"longitude":17.698631,"timezone":"Europe/Prague","wikipedia":"https://cs.wikipedia.org/wiki/Chvalčov"}},{"id":"1215697849","status":"active","title":"Trnovany: Teplice","location":{"city":"Trnovany","region":"Northwest","region_code":"CZ.81","country":"Czechia","country_code":"CZ","continent":"Europe","continent_code":"EU","latitude":50.644236,"longitude":13.83419,"timezone":"Europe/Prague","wikipedia":"https://cs.wikipedia.org/wiki/Trnovany (okres Litoměřice)"}},{"id":"1215699257","status":"active","title":"Uvaly: náměstí Úvaly","location":{"city":"Uvaly","region":"Central Bohemia","region_code":"CZ.88","country":"Czechia","country_code":"CZ","continent":"Europe","continent_code":"EU","latitude":50.073309,"longitude":14.728589,"timezone":"Europe/Prague","wikipedia":"https://cs.wikipedia.org/wiki/Úvaly"}},{"id":"1215701096","status":"active","title":"Vsetin","location":{"city":"Vsetin","region":"Central Moravia","region_code":"CZ.84","country":"Czechia","country_code":"CZ","continent":"Europe","continent_code":"EU","latitude":49.335215,"longitude":17.99586,"timezone":"Europe/Prague","wikipedia":"https://cs.wikipedia.org/wiki/Vsetín"}},{"id":"1215721586","status":"active","title":"Tigerplassen: Moss Havn: Kanalen","location":{"city":"Tigerplassen","region":"Østfold","region_code":"KgIjIjI","country":"Norway","country_code":"NO","continent":"Europe","continent_code":"EU","latitude":59.433739,"longitude":10.652908,"timezone":"Europe/Oslo","wikipedia":""}},{"id":"1215965592","status":"active","title":"Sliven","location":{"city":"Sliven","region":"Sliven","region_code":"BG.56","country":"Bulgaria","country_code":"BG","continent":"Europe","continent_code":"EU","latitude":42.646081,"longitude":26.352081,"timezone":"Europe/Sofia","wikipedia":"https://bg.wikipedia.org/wiki/Сливен"}},{"id":"1216285061","status":"active","title":"Békéscsaba: Szent István tér","location":{"city":"Békéscsaba","region":"Southern Great Plain","region_code":"KeeuWc","country":"Hungary","country_code":"HU","continent":"Europe","continent_code":"EU","latitude":46.679594,"longitude":21.098256,"timezone":"Europe/Budapest","wikipedia":"https://hu.wikipedia.org/wiki/Békéscsaba"}},{"id":"1216888812","status":"active","title":"Haparanda: Kukkolaforsen","location":{"city":"Haparanda","region":"Norrbotten County","region_code":"SE.14","country":"Sweden","country_code":"SE","continent":"Europe","continent_code":"EU","latitude":65.962419,"longitude":24.040146,"timezone":"Europe/Stockholm","wikipedia":""}},{"id":"1216889606","status":"active","title":"Ostansjo: Jokkmokk","location":{"city":"Ostansjo","region":"Norrbotten County","region_code":"SE.14","country":"Sweden","country_code":"SE","continent":"Europe","continent_code":"EU","latitude":66.604732,"longitude":19.83427,"timezone":"Europe/Stockholm","wikipedia":""}},{"id":"1216893303","status":"active","title":"Rottneros › South-East: Sunne Riksväg  vid Kolsnäs","location":{"city":"Rottneros","region":"Värmland County","region_code":"SE.22","country":"Sweden","country_code":"SE","continent":"Europe","continent_code":"EU","latitude":59.819854,"longitude":13.130403,"timezone":"Europe/Stockholm","wikipedia":""}},{"id":"1217160835","status":"active","title":"Capoliveri: Isola d'Elba Webcam Tramonto sul Golfo Stella","location":{"city":"Capoliveri","region":"Tuscany","region_code":"IT.16","country":"Italy","country_code":"IT","continent":"Europe","continent_code":"EU","latitude":42.744916,"longitude":10.375345,"timezone":"Europe/Rome","wikipedia":"https://it.wikipedia.org/wiki/Capoliveri"}},{"id":"1217964801","status":"active","title":"Bacares: Calar Alto - Norte","location":{"city":"Bacares","region":"Andalusia","region_code":"ES.51","country":"Spain","country_code":"ES","continent":"Europe","continent_code":"EU","latitude":37.22209,"longitude":-2.546961,"timezone":"Europe/Madrid","wikipedia":"https://es.wikipedia.org/wiki/Bacares (Almería)"}},{"id":"1217964946","status":"active","title":"Bacares: Calar Alto, .M Telescope, South view","location":{"city":"Bacares","region":"Andalusia","region_code":"ES.51","country":"Spain","country_code":"ES","continent":"Europe","continent_code":"EU","latitude":37.220419,"longitude":-2.546682,"timezone":"Europe/Madrid","wikipedia":"https://es.wikipedia.org/wiki/Bacares (Almería)"}},{"id":"1217965045","status":"active","title":"Bacares: Calar Alto - Este","location":{"city":"Bacares","region":"Andalusia","region_code":"ES.51","country":"Spain","country_code":"ES","continent":"Europe","continent_code":"EU","latitude":37.221475,"longitude":-2.549193,"timezone":"Europe/Madrid","wikipedia":"https://es.wikipedia.org/wiki/Bacares (Almería)"}},{"id":"1219581836","status":"active","title":"Westpunt: Barry's Middenbaan Noord (Zuid) Hoogvliet Rotterdam - WebCam","location":{"city":"Westpunt","region":"Curacao","region_code":"KWeWjuWc","country":"Netherlands","country_code":"NL","continent":"Europe","continent_code":"EU","latitude":51.864766,"longitude":4.353719,"timezone":"America/Curacao","wikipedia":"https://nl.wikipedia.org/wiki/Westpunt (Curaçao)"}},{"id":"1219821022","status":"active","title":"Sirevag: Skolten, Sirevaag","location":{"city":"Sirevag","region":"Rogaland","region_code":"KgIDbhj","country":"Norway","country_code":"NO","continent":"Europe","continent_code":"EU","latitude":58.501716,"longitude":5.80106,"timezone":"Europe/Oslo","wikipedia":""}},{"id":"1220422386","status":"active","title":"Haifa: Live","location":{"city":"Haifa","region":"Haifa District","region_code":"IL.04","country":"Israel","country_code":"IL","continent":"Asia","continent_code":"AS","latitude":32.818729,"longitude":34.963989,"timezone":"Asia/Jerusalem","wikipedia":""}},{"id":"1221641674","status":"active","title":"Hanko: Tvärminne","location":{"city":"Hanko","region":"Southern Finland","region_code":"FI.07","country":"Finland","country_code":"FI","continent":"Europe","continent_code":"EU","latitude":59.844341,"longitude":23.249559,"timezone":"Europe/Helsinki","wikipedia":"https://fi.wikipedia.org/wiki/Hanko"}},{"id":"1222279962","status":"active","title":"Ravoire: Vue sur la route du Col de la Forclaz sur Martigny Valais Suisse","location":{"city":"Ravoire","region":"Auvergne-Rhone-Alpes","region_code":"FR.84","country":"France","country_code":"FR","continent":"Europe","continent_code":"EU","latitude":46.10016,"longitude":7.05782,"timezone":"Europe/Zurich","wikipedia":""}},{"id":"1223114361","status":"active","title":"Rendsburg: Rendsburger Innenstadt","location":{"city":"Rendsburg","region":"Schleswig-Holstein","region_code":"DE.10","country":"Germany","country_code":"DE","continent":"Europe","continent_code":"EU","latitude":54.303281,"longitude":9.667277,"timezone":"Europe/Berlin","wikipedia":"https://de.wikipedia.org/wiki/Rendsburg"}},{"id":"1224617934","status":"active","title":"Bad Mergentheim: Marktplatz","location":{"city":"Bad Mergentheim","region":"Baden-Württemberg","region_code":"DE.01","country":"Germany","country_code":"DE","continent":"Europe","continent_code":"EU","latitude":49.49041,"longitude":9.77309,"timezone":"Europe/Berlin","wikipedia":"https://de.wikipedia.org/wiki/Bad Mergentheim"}},{"id":"1225476741","status":"active","title":"Honningsvåg: Honningsvaag","location":{"city":"Honningsvåg","region":"Finnmark","region_code":"KgIjhbc","country":"Norway","country_code":"NO","continent":"Europe","continent_code":"EU","latitude":70.97847,"longitude":25.968847,"timezone":"Europe/Oslo","wikipedia":""}},{"id":"1225583245","status":"active","title":"San Miguel de Cozumel: Scuba Club Cozumel","location":{"city":"San Miguel de Cozumel","region":"Quintana Roo","region_code":"MX.23","country":"Mexico","country_code":"MX","continent":"North America","continent_code":"NA","latitude":20.499712,"longitude":-86.961197,"timezone":"America/Cancun","wikipedia":"https://es.wikipedia.org/wiki/San_Miguel_de_Cozumel"}},{"id":"1226167001","status":"active","title":"Vesisaari: Finnmark","location":{"city":"Vesisaari","region":"Finnmark","region_code":"KgIjhbc","country":"Norway","country_code":"NO","continent":"Europe","continent_code":"EU","latitude":70.073762,"longitude":29.748573,"timezone":"Europe/Oslo","wikipedia":""}},{"id":"1226391271","status":"active","title":"Barneville-Carteret › South-West: Yacht Club de Barneville Carteret","location":{"city":"Barneville-Carteret","region":"Normandy","region_code":"FR.28","country":"France","country_code":"FR","continent":"Europe","continent_code":"EU","latitude":49.379914,"longitude":-1.773949,"timezone":"Europe/Paris","wikipedia":"https://fr.wikipedia.org/wiki/Barneville-Carteret"}},{"id":"1226475516","status":"active","title":"Nisula: Jyväskylä, Jyväskylän keskustan","location":{"city":"Nisula","region":"Western Finland","region_code":"FI.04","country":"Finland","country_code":"FI","continent":"Europe","continent_code":"EU","latitude":62.241804,"longitude":25.745623,"timezone":"Europe/Helsinki","wikipedia":""}},{"id":"1226596293","status":"active","title":"Kopingsvik: Borgholms kommun","location":{"city":"Kopingsvik","region":"Kalmar County","region_code":"SE.09","country":"Sweden","country_code":"SE","continent":"Europe","continent_code":"EU","latitude":56.879339,"longitude":16.65566,"timezone":"Europe/Stockholm","wikipedia":""}},{"id":"1226929566","status":"active","title":"Talloires-Montmin: Le Cottage","location":{"city":"Talloires-Montmin","region":"Auvergne-Rhone-Alpes","region_code":"FR.84","country":"France","country_code":"FR","continent":"Europe","continent_code":"EU","latitude":45.839911,"longitude":6.211234,"timezone":"Europe/Paris","wikipedia":"https://fr.wikipedia.org/wiki/Talloires-Montmin"}},{"id":"1227102750","status":"active","title":"Ringheim: EDFC Flugplatz Aschaffenburg","location":{"city":"Ringheim","region":"Bavaria","region_code":"DE.02","country":"Germany","country_code":"DE","continent":"Europe","continent_code":"EU","latitude":49.939317,"longitude":9.057541,"timezone":"Europe/Berlin","wikipedia":""}},{"id":"1227478152","status":"active","title":"Atzing: Hotel Victoria, Maishofen","location":{"city":"Atzing","region":"Salzburg","region_code":"AT.05","country":"Austria","country_code":"AT","continent":"Europe","continent_code":"EU","latitude":47.357534,"longitude":12.800349,"timezone":"Europe/Vienna","wikipedia":""}},{"id":"1227856611","status":"active","title":"Elbigenalp: Wellness-Schlössl Hotel-Resort Alpenrose","location":{"city":"Elbigenalp","region":"Bavaria","region_code":"DE.02","country":"Germany","country_code":"DE","continent":"Europe","continent_code":"EU","latitude":47.287759,"longitude":10.429888,"timezone":"Europe/Vienna","wikipedia":"https://de.wikipedia.org/wiki/Elbigenalp"}},{"id":"1227972392","status":"active","title":"St. Gallenkappel › East: Klosterplatz","location":{"city":"St. Gallenkappel","region":"Canton of St. Gallen","region_code":"CH.SG","country":"Switzerland","country_code":"CH","continent":"Europe","continent_code":"EU","latitude":47.423289,"longitude":9.376681,"timezone":"Europe/Zurich","wikipedia":""}},{"id":"1228148016","status":"active","title":"Westpunt: Barry's Middenbaan Noord (Noord) Hoogvliet Rotterdam - WebCam","location":{"city":"Westpunt","region":"Curacao","region_code":"KWeWjuWc","country":"Netherlands","country_code":"NL","continent":"Europe","continent_code":"EU","latitude":51.86571,"longitude":4.353177,"timezone":"America/Curacao","wikipedia":"https://nl.wikipedia.org/wiki/Westpunt (Curaçao)"}},{"id":"1228461165","status":"active","title":"Lugano: Piazza Riforma","location":{"city":"Lugano","region":"Canton Ticino","region_code":"CH.TI","country":"Switzerland","country_code":"CH","continent":"Europe","continent_code":"EU","latitude":46.003848,"longitude":8.951197,"timezone":"Europe/Zurich","wikipedia":"https://it.wikipedia.org/wiki/Lugano"}},{"id":"1228491309","status":"active","title":"Saint James: Paradise Bay, Beaver Island","location":{"city":"Saint James","region":"Michigan","region_code":"US.MI","country":"United States","country_code":"US","continent":"North America","continent_code":"NA","latitude":45.746593,"longitude":-85.520754,"timezone":"America/Detroit","wikipedia":""}},{"id":"1228684374","status":"active","title":"Judenburg: Judenburg Hauptplatz - Hauptplatz","location":{"city":"Judenburg","region":"Styria","region_code":"AT.06","country":"Austria","country_code":"AT","continent":"Europe","continent_code":"EU","latitude":47.168871,"longitude":14.660751,"timezone":"Europe/Vienna","wikipedia":"https://de.wikipedia.org/wiki/Judenburg"}},{"id":"1229966466","status":"active","title":"Sandane","location":{"city":"Sandane","region":"Sogn og Fjordane","region_code":"KgIuubu","country":"Norway","country_code":"NO","continent":"Europe","continent_code":"EU","latitude":61.766667,"longitude":6.216667,"timezone":"Europe/Oslo","wikipedia":""}},{"id":"1230041806","status":"active","title":"Bergen aan Zee","location":{"city":"Bergen aan Zee","region":"North Holland","region_code":"NL.07","country":"Netherlands","country_code":"NL","continent":"Europe","continent_code":"EU","latitude":52.660237,"longitude":4.627928,"timezone":"Europe/Amsterdam","wikipedia":""}},{"id":"1230568022","status":"active","title":"Blacksburg › North-East: Tech, Library Plaza Webcam - VA","location":{"city":"Blacksburg","region":"Virginia","region_code":"US.VA","country":"United States","country_code":"US","continent":"North America","continent_code":"NA","latitude":37.227834,"longitude":-80.419697,"timezone":"America/New_York","wikipedia":"https://en.wikipedia.org/wiki/Blacksburg, Virginia"}},{"id":"1230893951","status":"active","title":"Mollis: Naturfreundehaus Fronalp, Skigebiet Schilt oberhalb - Glarnerland","location":{"city":"Mollis","region":"Canton of Glarus","region_code":"CH.GL","country":"Switzerland","country_code":"CH","continent":"Europe","continent_code":"EU","latitude":47.073051,"longitude":9.092302,"timezone":"Europe/Zurich","wikipedia":"https://de.wikipedia.org/wiki/Mollis"}},{"id":"1231534692","status":"active","title":"Tonning: Eiderblick","location":{"city":"Tonning","region":"Schleswig-Holstein","region_code":"DE.10","country":"Germany","country_code":"DE","continent":"Europe","continent_code":"EU","latitude":54.309022,"longitude":8.93766,"timezone":"Europe/Berlin","wikipedia":"https://de.wikipedia.org/wiki/Tönning"}},{"id":"1231845789","status":"active","title":"Palma: Playa De Palma","location":{"city":"Palma","region":"Balearic Islands","region_code":"ES.07","country":"Spain","country_code":"ES","continent":"Europe","continent_code":"EU","latitude":39.535242,"longitude":2.720189,"timezone":"Europe/Madrid","wikipedia":"https://es.wikipedia.org/wiki/Palma de Mallorca"}}],[{"id":"1232299308","status":"active","title":"Selfoss › East: Eyravegur","location":{"city":"Selfoss","region":"Sveitarfelagi Arborg","region_code":"","country":"Iceland","country_code":"IS","continent":"Europe","continent_code":"EU","latitude":63.934638,"longitude":-21.011567,"timezone":"Atlantic/Reykjavik","wikipedia":""}},{"id":"1232311322","status":"active","title":"Oldenburg: bfa","location":{"city":"Oldenburg","region":"Lower Saxony","region_code":"DE.06","country":"Germany","country_code":"DE","continent":"Europe","continent_code":"EU","latitude":53.150631,"longitude":8.237557,"timezone":"Europe/Berlin","wikipedia":"https://de.wikipedia.org/wiki/Oldenburg (Oldenburg)"}},{"id":"1232600976","status":"active","title":"North Bay Village: Wannman Cam, Miami's Biscayne Bay","location":{"city":"North Bay Village","region":"Florida","region_code":"US.FL","country":"United States","country_code":"US","continent":"North America","continent_code":"NA","latitude":25.843927,"longitude":-80.159442,"timezone":"America/New_York","wikipedia":"https://en.wikipedia.org/wiki/North Bay Village, Florida"}},{"id":"1234951380","status":"active","title":"Diomede: Dateline Cam, Little","location":{"city":"Diomede","region":"Alaska","region_code":"US.AK","country":"United States","country_code":"US","continent":"North America","continent_code":"NA","latitude":65.758869,"longitude":-168.951123,"timezone":"America/Nome","wikipedia":"https://en.wikipedia.org/wiki/Diomede, Alaska"}},{"id":"1234953334","status":"active","title":"Bad Gastein: Gastein","location":{"city":"Bad Gastein","region":"Salzburg","region_code":"AT.05","country":"Austria","country_code":"AT","continent":"Europe","continent_code":"EU","latitude":47.119672,"longitude":13.130035,"timezone":"Europe/Vienna","wikipedia":""}},{"id":"1234953755","status":"active","title":"Ames: State University","location":{"city":"Ames","region":"Iowa","region_code":"US.IA","country":"United States","country_code":"US","continent":"North America","continent_code":"NA","latitude":42.02416,"longitude":-93.645895,"timezone":"America/Chicago","wikipedia":"https://en.wikipedia.org/wiki/Ames, Iowa"}},{"id":"1235134756","status":"active","title":"Finse","location":{"city":"Finse","region":"Hordaland","region_code":"KgIgWgg","country":"Norway","country_code":"NO","continent":"Europe","continent_code":"EU","latitude":60.601764,"longitude":7.504059,"timezone":"Europe/Oslo","wikipedia":""}},{"id":"1241462417","status":"active","title":"Naples","location":{"city":"Naples","region":"Campania","region_code":"IT.04","country":"Italy","country_code":"IT","continent":"Europe","continent_code":"EU","latitude":40.836559,"longitude":14.246612,"timezone":"Europe/Rome","wikipedia":"https://it.wikipedia.org/wiki/Napoli"}},{"id":"1241620598","status":"active","title":"Mulhouse: Place de la Réunion - Temple Saint-Étienne","location":{"city":"Mulhouse","region":"Grand Est","region_code":"FR.44","country":"France","country_code":"FR","continent":"Europe","continent_code":"EU","latitude":47.746603,"longitude":7.338942,"timezone":"Europe/Paris","wikipedia":"https://fr.wikipedia.org/wiki/Mulhouse"}},{"id":"1241624421","status":"active","title":"Münster: Klimacam","location":{"city":"Münster","region":"North Rhine-Westphalia","region_code":"DE.07","country":"Germany","country_code":"DE","continent":"Europe","continent_code":"EU","latitude":51.960221,"longitude":7.607335,"timezone":"Europe/Berlin","wikipedia":""}},{"id":"1241705863","status":"active","title":"Saint-Martin-le-Vinoux: Grenoble INP - Vue sur la Bastille","location":{"city":"Saint-Martin-le-Vinoux","region":"Auvergne-Rhone-Alpes","region_code":"FR.84","country":"France","country_code":"FR","continent":"Europe","continent_code":"EU","latitude":45.195042,"longitude":5.709243,"timezone":"Europe/Paris","wikipedia":"https://fr.wikipedia.org/wiki/Saint-Martin-le-Vinoux"}},{"id":"1241895553","status":"active","title":"Kinsarvik › West: › West: Hordaland","location":{"city":"Kinsarvik","region":"Hordaland","region_code":"KgIgWgg","country":"Norway","country_code":"NO","continent":"Europe","continent_code":"EU","latitude":60.37567,"longitude":6.71948,"timezone":"Europe/Oslo","wikipedia":""}},{"id":"1242321918","status":"active","title":"Nedvedice","location":{"city":"Nedvedice","region":"Southeast","region_code":"CZ.78","country":"Czechia","country_code":"CZ","continent":"Europe","continent_code":"EU","latitude":49.454209,"longitude":16.332153,"timezone":"Europe/Prague","wikipedia":"https://cs.wikipedia.org/wiki/Nedvědice"}},{"id":"1242521789","status":"active","title":"Navia: playa de","location":{"city":"Navia","region":"Asturias","region_code":"ES.34","country":"Spain","country_code":"ES","continent":"Europe","continent_code":"EU","latitude":43.548533,"longitude":-6.719084,"timezone":"Europe/Madrid","wikipedia":"https://es.wikipedia.org/wiki/Navia (Asturias)"}},{"id":"1242752408","status":"active","title":"Arjeplog","location":{"city":"Arjeplog","region":"Norrbotten County","region_code":"SE.14","country":"Sweden","country_code":"SE","continent":"Europe","continent_code":"EU","latitude":66.051892,"longitude":17.888457,"timezone":"Europe/Stockholm","wikipedia":""}},{"id":"1242829621","status":"active","title":"Bad Wildbad","location":{"city":"Bad Wildbad","region":"Baden-Württemberg","region_code":"DE.01","country":"Germany","country_code":"DE","continent":"Europe","continent_code":"EU","latitude":48.74915,"longitude":8.550721,"timezone":"Europe/Berlin","wikipedia":"https://de.wikipedia.org/wiki/Bad Wildbad"}},{"id":"1242976557","status":"active","title":"Skarsa: Skärså","location":{"city":"Skarsa","region":"Gävleborg County","region_code":"SE.03","country":"Sweden","country_code":"SE","continent":"Europe","continent_code":"EU","latitude":61.376825,"longitude":17.105885,"timezone":"Europe/Stockholm","wikipedia":""}},{"id":"1243114593","status":"active","title":"St. Pete Beach: TradeWinds Resort","location":{"city":"St. Pete Beach","region":"Florida","region_code":"US.FL","country":"United States","country_code":"US","continent":"North America","continent_code":"NA","latitude":27.729122,"longitude":-82.745773,"timezone":"America/New_York","wikipedia":"https://en.wikipedia.org/wiki/St. Pete Beach, Florida"}},{"id":"1243254346","status":"active","title":"Villnachern: View on Aare river valley and - mountains","location":{"city":"Villnachern","region":"Canton of Aargau","region_code":"CH.AG","country":"Switzerland","country_code":"CH","continent":"Europe","continent_code":"EU","latitude":47.47538,"longitude":8.158611,"timezone":"Europe/Zurich","wikipedia":"https://de.wikipedia.org/wiki/Villnachern"}},{"id":"1244711479","status":"active","title":"Mittelberg: Panorama Kleinwalsertal","location":{"city":"Mittelberg","region":"Bavaria","region_code":"DE.02","country":"Germany","country_code":"DE","continent":"Europe","continent_code":"EU","latitude":47.3681,"longitude":10.181942,"timezone":"Europe/Vienna","wikipedia":"https://de.wikipedia.org/wiki/Mittelberg (Vorarlberg)"}},{"id":"1244836312","status":"active","title":"Aghios Dimitrios: Stoupa - Selinitsa","location":{"city":"Aghios Dimitrios","region":"Peloponnese, West Greece and Ionian Sea","region_code":"GR.ESYE25","country":"Greece","country_code":"GR","continent":"Europe","continent_code":"EU","latitude":36.808116,"longitude":22.296388,"timezone":"Europe/Athens","wikipedia":""}},{"id":"1246443404","status":"active","title":"Slatina: u Bílovce","location":{"city":"Slatina","region":"Moravia-Silesia","region_code":"CZ.85","country":"Czechia","country_code":"CZ","continent":"Europe","continent_code":"EU","latitude":49.791057,"longitude":17.979402,"timezone":"Europe/Prague","wikipedia":"https://cs.wikipedia.org/wiki/Slatina (okres Nový Jičín)"}},{"id":"1246915663","status":"active","title":"Pesaro: Viale Trieste - Spiaggia di Ponente","location":{"city":"Pesaro","region":"The Marches","region_code":"IT.10","country":"Italy","country_code":"IT","continent":"Europe","continent_code":"EU","latitude":43.919044,"longitude":12.911114,"timezone":"Europe/Rome","wikipedia":"https://it.wikipedia.org/wiki/Pesaro"}},{"id":"1246977254","status":"active","title":"Białystok: Sienkiewicza/Jurowiecka Street","location":{"city":"Białystok","region":"Podlaskie Voivodeship","region_code":"PL.81","country":"Poland","country_code":"PL","continent":"Europe","continent_code":"EU","latitude":53.136396,"longitude":23.165317,"timezone":"Europe/Warsaw","wikipedia":"https://pl.wikipedia.org/wiki/Białystok"}},{"id":"1247858394","status":"active","title":"Lipari: Eolnet srl - Porto di - Isole Eolie","location":{"city":"Lipari","region":"Sicily","region_code":"IT.15","country":"Italy","country_code":"IT","continent":"Europe","continent_code":"EU","latitude":38.469551,"longitude":14.955997,"timezone":"Europe/Rome","wikipedia":"https://it.wikipedia.org/wiki/Lipari (Italia)"}},{"id":"1248288672","status":"active","title":"Canmore: Railway Avenue","location":{"city":"Canmore","region":"Alberta","region_code":"CA.01","country":"Canada","country_code":"CA","continent":"North America","continent_code":"NA","latitude":51.089917,"longitude":-115.354828,"timezone":"America/Edmonton","wikipedia":"https://en.wikipedia.org/wiki/Canmore, Alberta"}},{"id":"1248288920","status":"active","title":"Canmore: 8 St","location":{"city":"Canmore","region":"Alberta","region_code":"CA.01","country":"Canada","country_code":"CA","continent":"North America","continent_code":"NA","latitude":51.089837,"longitude":-115.354621,"timezone":"America/Edmonton","wikipedia":"https://en.wikipedia.org/wiki/Canmore, Alberta"}},{"id":"1248391209","status":"active","title":"Giglio Porto: Brandeggiante del Porto di Isola del Giglio","location":{"city":"Giglio Porto","region":"Tuscany","region_code":"IT.16","country":"Italy","country_code":"IT","continent":"Europe","continent_code":"EU","latitude":42.360455,"longitude":10.918812,"timezone":"Europe/Rome","wikipedia":"https://it.wikipedia.org/wiki/Giglio Porto"}},{"id":"1248954198","status":"active","title":"Ghory-Stryjovecjki: Vokzal","location":{"city":"Ghory-Stryjovecjki","region":"Ternopil Oblast","region_code":"UA.22","country":"Ukraine","country_code":"UA","continent":"Europe","continent_code":"EU","latitude":49.256042,"longitude":23.850031,"timezone":"Europe/Kiev","wikipedia":"https://uk.wikipedia.org/wiki/Гори-Стрийовецькі"}},{"id":"1249045308","status":"active","title":"Dolsenhain: Gnanstein - Gnandstein","location":{"city":"Dolsenhain","region":"Saxony","region_code":"DE.13","country":"Germany","country_code":"DE","continent":"Europe","continent_code":"EU","latitude":51.018494,"longitude":12.577711,"timezone":"Europe/Berlin","wikipedia":""}},{"id":"1249405977","status":"active","title":"Oberammergau: Hotel Alte Post GmbH","location":{"city":"Oberammergau","region":"Bavaria","region_code":"DE.02","country":"Germany","country_code":"DE","continent":"Europe","continent_code":"EU","latitude":47.598585,"longitude":11.064439,"timezone":"Europe/Berlin","wikipedia":"https://de.wikipedia.org/wiki/Oberammergau"}},{"id":"1249936767","status":"active","title":"Los Angeles: UCLA BruinCam - Live view of Dickson Plaza and Royce Hall","location":{"city":"Los Angeles","region":"California","region_code":"US.CA","country":"United States","country_code":"US","continent":"North America","continent_code":"NA","latitude":34.071871,"longitude":-118.442107,"timezone":"America/Los_Angeles","wikipedia":""}},{"id":"1250940903","status":"active","title":"Grundau: Autowaschzentrum","location":{"city":"Grundau","region":"Hesse","region_code":"DE.05","country":"Germany","country_code":"DE","continent":"Europe","continent_code":"EU","latitude":50.205342,"longitude":9.136623,"timezone":"Europe/Berlin","wikipedia":"https://de.wikipedia.org/wiki/Gründau"}},{"id":"1251882558","status":"active","title":"Gieres: Grenoble INP : vue sur le campus de Grenoble (Saint-Martin d'Hères) et Belledonne","location":{"city":"Gieres","region":"Auvergne-Rhone-Alpes","region_code":"FR.84","country":"France","country_code":"FR","continent":"Europe","continent_code":"EU","latitude":45.192733,"longitude":5.765521,"timezone":"Europe/Paris","wikipedia":"https://fr.wikipedia.org/wiki/Gières"}},{"id":"1252134484","status":"active","title":"Uusikaupunki","location":{"city":"Uusikaupunki","region":"Southern Finland","region_code":"FI.07","country":"Finland","country_code":"FI","continent":"Europe","continent_code":"EU","latitude":60.798634,"longitude":21.41201,"timezone":"Europe/Helsinki","wikipedia":"https://fi.wikipedia.org/wiki/Uusikaupunki"}},{"id":"1252749312","status":"active","title":"Konya: hacıveyiszade cami","location":{"city":"Konya","region":"Konya","region_code":"TR.71","country":"Turkey","country_code":"TR","continent":"Asia","continent_code":"AS","latitude":37.876276,"longitude":32.488203,"timezone":"Europe/Istanbul","wikipedia":"https://tr.wikipedia.org/wiki/Konya"}},{"id":"1252954160","status":"active","title":"Bex","location":{"city":"Bex","region":"Canton of Vaud","region_code":"CH.VD","country":"Switzerland","country_code":"CH","continent":"Europe","continent_code":"EU","latitude":46.25147,"longitude":7.012212,"timezone":"Europe/Zurich","wikipedia":"https://fr.wikipedia.org/wiki/Bex"}},{"id":"1253040164","status":"active","title":"Detroit: tunnel canada","location":{"city":"Detroit","region":"Michigan","region_code":"US.MI","country":"United States","country_code":"US","continent":"North America","continent_code":"NA","latitude":42.404529,"longitude":-83.052398,"timezone":"America/Detroit","wikipedia":"https://en.wikipedia.org/wiki/Detroit, Michigan"}},{"id":"1253261479","status":"active","title":"Poipu: Town","location":{"city":"Poipu","region":"Hawaii","region_code":"US.HI","country":"United States","country_code":"US","continent":"North America","continent_code":"NA","latitude":21.880615,"longitude":-159.469643,"timezone":"Pacific/Honolulu","wikipedia":""}},{"id":"1253434254","status":"active","title":"Halmstad › North: Halmstad, Stora Torg - Stora vägen","location":{"city":"Halmstad","region":"Halland County","region_code":"SE.06","country":"Sweden","country_code":"SE","continent":"Europe","continent_code":"EU","latitude":56.674044,"longitude":12.858875,"timezone":"Europe/Stockholm","wikipedia":"https://en.wikipedia.org/wiki/Halmstad"}},{"id":"1254482704","status":"active","title":"Clonakilty Rural: Inchydoney Island Lodge and Spa Beach","location":{"city":"Clonakilty Rural","region":"West Cork Municipal District","region_code":"","country":"Ireland","country_code":"IE","continent":"Europe","continent_code":"EU","latitude":51.597441,"longitude":-8.861332,"timezone":"Europe/Dublin","wikipedia":""}},{"id":"1255509668","status":"active","title":"Cassis: Port de Cassis","location":{"city":"Cassis","region":"Provence-Alpes-Côte d'Azur","region_code":"FR.93","country":"France","country_code":"FR","continent":"Europe","continent_code":"EU","latitude":43.213168,"longitude":5.538247,"timezone":"Europe/Paris","wikipedia":"https://fr.wikipedia.org/wiki/Cassis (Bouches-du-Rhône)"}},{"id":"1258706598","status":"active","title":"Rauris: Webcam","location":{"city":"Rauris","region":"Salzburg","region_code":"AT.05","country":"Austria","country_code":"AT","continent":"Europe","continent_code":"EU","latitude":47.229472,"longitude":12.99511,"timezone":"Europe/Vienna","wikipedia":"https://en.wikipedia.org/wiki/Rauris"}},{"id":"1259694991","status":"active","title":"Buftea: primaria otopeni","location":{"city":"Buftea","region":"Ilfov","region_code":"Kehjjccj","country":"Romania","country_code":"RO","continent":"Europe","continent_code":"EU","latitude":44.551201,"longitude":26.073094,"timezone":"Europe/Bucharest","wikipedia":""}},{"id":"1261820095","status":"active","title":"Schenefeld: Wetter-WebCam","location":{"city":"Schenefeld","region":"Schleswig-Holstein","region_code":"DE.10","country":"Germany","country_code":"DE","continent":"Europe","continent_code":"EU","latitude":54.045884,"longitude":9.480171,"timezone":"Europe/Berlin","wikipedia":"https://de.wikipedia.org/wiki/Schenefeld (Kreis Pinneberg)"}},{"id":"1261950002","status":"active","title":"Raduzhnyy: центр города Радужный хмао","location":{"city":"Raduzhnyy","region":"Moscow Oblast","region_code":"RU.47","country":"Russia","country_code":"RU","continent":"Europe","continent_code":"EU","latitude":62.131458,"longitude":77.45739,"timezone":"Europe/Moscow","wikipedia":""}},{"id":"1262043635","status":"active","title":"Bystrice pod Hostynem: Main Street","location":{"city":"Bystrice pod Hostynem","region":"Central Moravia","region_code":"CZ.84","country":"Czechia","country_code":"CZ","continent":"Europe","continent_code":"EU","latitude":49.39796,"longitude":17.67683,"timezone":"Europe/Prague","wikipedia":"https://cs.wikipedia.org/wiki/Bystřice pod Hostýnem"}},{"id":"1262082345","status":"active","title":"Pieksämäki: Pieksämäen rantamaisemaa","location":{"city":"Pieksämäki","region":"Eastern Finland","region_code":"FI.10","country":"Finland","country_code":"FI","continent":"Europe","continent_code":"EU","latitude":62.301933,"longitude":27.1558,"timezone":"Europe/Helsinki","wikipedia":"https://en.wikipedia.org/wiki/Pieksämäki"}},{"id":"1262264134","status":"active","title":"Feyzin: Rhône","location":{"city":"Feyzin","region":"Auvergne-Rhone-Alpes","region_code":"FR.84","country":"France","country_code":"FR","continent":"Europe","continent_code":"EU","latitude":45.674792,"longitude":4.859583,"timezone":"Europe/Paris","wikipedia":"https://fr.wikipedia.org/wiki/Feyzin"}},{"id":"1262513053","status":"active","title":"Izhevsk: central place, Ижевск - центральная площадь","location":{"city":"Izhevsk","region":"Udmurtia","region_code":"RU.80","country":"Russia","country_code":"RU","continent":"Europe","continent_code":"EU","latitude":56.851305,"longitude":53.213192,"timezone":"Europe/Samara","wikipedia":"https://ru.wikipedia.org/wiki/Ижевск"}}],[{"id":"1263596311","status":"active","title":"Alberschwende: Webcam Lift","location":{"city":"Alberschwende","region":"Vorarlberg","region_code":"AT.08","country":"Austria","country_code":"AT","continent":"Europe","continent_code":"EU","latitude":47.450213,"longitude":9.838096,"timezone":"Europe/Vienna","wikipedia":"https://de.wikipedia.org/wiki/Alberschwende"}},{"id":"1263629371","status":"active","title":"Buftea: parc otopeni","location":{"city":"Buftea","region":"Ilfov","region_code":"Kehjjccj","country":"Romania","country_code":"RO","continent":"Europe","continent_code":"EU","latitude":44.550268,"longitude":26.072147,"timezone":"Europe/Bucharest","wikipedia":""}},{"id":"1263629507","status":"active","title":"Buftea: DN OTOPENI","location":{"city":"Buftea","region":"Ilfov","region_code":"Kehjjccj","country":"Romania","country_code":"RO","continent":"Europe","continent_code":"EU","latitude":44.550663,"longitude":26.06928,"timezone":"Europe/Bucharest","wikipedia":""}},{"id":"1265027685","status":"active","title":"Sudwest-Fryslan: Veldman Yacht Charter","location":{"city":"Sudwest-Fryslan","region":"Friesland","region_code":"NL.02","country":"Netherlands","country_code":"NL","continent":"Europe","continent_code":"EU","latitude":53.022102,"longitude":5.699431,"timezone":"Europe/Amsterdam","wikipedia":"https://nl.wikipedia.org/wiki/Súdwest-Fryslân"}},{"id":"1266592167","status":"active","title":"Bourne: Buzzards Bay","location":{"city":"Bourne","region":"Massachusetts","region_code":"US.MA","country":"United States","country_code":"US","continent":"North America","continent_code":"NA","latitude":41.584923,"longitude":-70.829587,"timezone":"America/New_York","wikipedia":"https://en.wikipedia.org/wiki/Bourne, Massachusetts"}},{"id":"1267453150","status":"active","title":"Rybnik: widok z Teatru Ziemi Rybnickiej","location":{"city":"Rybnik","region":"Silesian Voivodeship","region_code":"PL.83","country":"Poland","country_code":"PL","continent":"Europe","continent_code":"EU","latitude":50.095491,"longitude":18.545609,"timezone":"Europe/Warsaw","wikipedia":"https://pl.wikipedia.org/wiki/Rybnik"}},{"id":"1270138135","status":"active","title":"Manlleu","location":{"city":"Manlleu","region":"Catalonia","region_code":"ES.56","country":"Spain","country_code":"ES","continent":"Europe","continent_code":"EU","latitude":42.001258,"longitude":2.284968,"timezone":"Europe/Madrid","wikipedia":"https://ca.wikipedia.org/wiki/Manlleu"}},{"id":"1270565009","status":"active","title":"Pieksämäki: kauppatori","location":{"city":"Pieksämäki","region":"Eastern Finland","region_code":"FI.10","country":"Finland","country_code":"FI","continent":"Europe","continent_code":"EU","latitude":62.299638,"longitude":27.160692,"timezone":"Europe/Helsinki","wikipedia":"https://en.wikipedia.org/wiki/Pieksämäki"}},{"id":"1271243282","status":"active","title":"Kaustinen: Pelimanniaukio","location":{"city":"Kaustinen","region":"Northern Finland","region_code":"FI.16","country":"Finland","country_code":"FI","continent":"Europe","continent_code":"EU","latitude":63.546536,"longitude":23.688276,"timezone":"Europe/Helsinki","wikipedia":"https://fi.wikipedia.org/wiki/Kaustinen"}},{"id":"1271674330","status":"active","title":"Olten: Alte Brücke","location":{"city":"Olten","region":"Canton of Solothurn","region_code":"CH.SO","country":"Switzerland","country_code":"CH","continent":"Europe","continent_code":"EU","latitude":47.3498,"longitude":7.906508,"timezone":"Europe/Zurich","wikipedia":"https://de.wikipedia.org/wiki/Olten"}},{"id":"1272284620","status":"active","title":"Sanremo: Hotel Royal","location":{"city":"Sanremo","region":"Liguria","region_code":"IT.08","country":"Italy","country_code":"IT","continent":"Europe","continent_code":"EU","latitude":43.811878,"longitude":7.765312,"timezone":"Europe/Rome","wikipedia":"https://it.wikipedia.org/wiki/Sanremo"}},{"id":"1273268534","status":"active","title":"Bellaria-Igea Marina: Spiaggia di Igea Marina","location":{"city":"Bellaria-Igea Marina","region":"Emilia-Romagna","region_code":"IT.05","country":"Italy","country_code":"IT","continent":"Europe","continent_code":"EU","latitude":44.14212,"longitude":12.47,"timezone":"Europe/Rome","wikipedia":"https://it.wikipedia.org/wiki/Bellaria-Igea Marina"}},{"id":"1273504210","status":"active","title":"Innsbruck: Sparkassen Square","location":{"city":"Innsbruck","region":"Tyrol","region_code":"AT.07","country":"Austria","country_code":"AT","continent":"Europe","continent_code":"EU","latitude":47.266158,"longitude":11.395467,"timezone":"Europe/Vienna","wikipedia":"https://de.wikipedia.org/wiki/Innsbruck"}},{"id":"1273582967","status":"active","title":"Landshut: Heiliggeistkirche Blickrichtung BurgTrausnitz","location":{"city":"Landshut","region":"Bavaria","region_code":"DE.02","country":"Germany","country_code":"DE","continent":"Europe","continent_code":"EU","latitude":48.538573,"longitude":12.152381,"timezone":"Europe/Berlin","wikipedia":""}},{"id":"1273826374","status":"active","title":"Kopingsvik: Borgholms kommun","location":{"city":"Kopingsvik","region":"Kalmar County","region_code":"SE.09","country":"Sweden","country_code":"SE","continent":"Europe","continent_code":"EU","latitude":56.880454,"longitude":16.649158,"timezone":"Europe/Stockholm","wikipedia":""}},{"id":"1274513901","status":"active","title":"Novy Jicin","location":{"city":"Novy Jicin","region":"Moravia-Silesia","region_code":"CZ.85","country":"Czechia","country_code":"CZ","continent":"Europe","continent_code":"EU","latitude":49.594864,"longitude":18.010561,"timezone":"Europe/Prague","wikipedia":"https://cs.wikipedia.org/wiki/Nový Jičín"}},{"id":"1276694008","status":"active","title":"Белоозёрский: Белоозерский","location":{"city":"Белоозёрский","region":"Republic of Kalmykia","region_code":"RU.24","country":"Russia","country_code":"RU","continent":"Europe","continent_code":"EU","latitude":55.460025,"longitude":38.438931,"timezone":"Europe/Moscow","wikipedia":""}},{"id":"1278917434","status":"active","title":"Toblach - Dobbiaco: Apparthotel Germania","location":{"city":"Toblach - Dobbiaco","region":"Trentino-Alto Adige/Südtirol","region_code":"IT.17","country":"Italy","country_code":"IT","continent":"Europe","continent_code":"EU","latitude":46.724034,"longitude":12.222848,"timezone":"Europe/Rome","wikipedia":"https://it.wikipedia.org/wiki/Dobbiaco"}},{"id":"1279646538","status":"active","title":"Lelystad: Airport","location":{"city":"Lelystad","region":"Flevoland","region_code":"NL.16","country":"Netherlands","country_code":"NL","continent":"Europe","continent_code":"EU","latitude":52.454611,"longitude":5.518227,"timezone":"Europe/Amsterdam","wikipedia":"https://nl.wikipedia.org/wiki/Lelystad"}},{"id":"1280331335","status":"active","title":"Ames: State University - West Lawn","location":{"city":"Ames","region":"Iowa","region_code":"US.IA","country":"United States","country_code":"US","continent":"North America","continent_code":"NA","latitude":42.027603,"longitude":-93.649097,"timezone":"America/Chicago","wikipedia":"https://en.wikipedia.org/wiki/Ames, Iowa"}},{"id":"1280938019","status":"active","title":"Monino › East: Московская область г.Монино проходная в военный городок","location":{"city":"Monino","region":"Pskov Oblast","region_code":"RU.60","country":"Russia","country_code":"RU","continent":"Europe","continent_code":"EU","latitude":55.843808,"longitude":38.194485,"timezone":"Europe/Moscow","wikipedia":""}},{"id":"1280995391","status":"active","title":"Hedeper: Storchennest","location":{"city":"Hedeper","region":"Lower Saxony","region_code":"DE.06","country":"Germany","country_code":"DE","continent":"Europe","continent_code":"EU","latitude":52.06385,"longitude":10.681973,"timezone":"Europe/Berlin","wikipedia":"https://de.wikipedia.org/wiki/Hedeper"}},{"id":"1281014701","status":"active","title":"Westpunt: Barry's Middenbaan Hof Hoogvliet Rotterdam - WebCam","location":{"city":"Westpunt","region":"Curacao","region_code":"KWeWjuWc","country":"Netherlands","country_code":"NL","continent":"Europe","continent_code":"EU","latitude":51.865458,"longitude":4.354352,"timezone":"America/Curacao","wikipedia":"https://nl.wikipedia.org/wiki/Westpunt (Curaçao)"}},{"id":"1281699578","status":"active","title":"Modugno: A Bari nord","location":{"city":"Modugno","region":"Apulia","region_code":"IT.13","country":"Italy","country_code":"IT","continent":"Europe","continent_code":"EU","latitude":41.11188,"longitude":16.737173,"timezone":"Europe/Rome","wikipedia":"https://it.wikipedia.org/wiki/Modugno"}},{"id":"1282142085","status":"active","title":"Saint-Maurice: Saint Maurice près de Clermont Ferrand","location":{"city":"Saint-Maurice","region":"Grand Est","region_code":"FR.44","country":"France","country_code":"FR","continent":"Europe","continent_code":"EU","latitude":45.668225,"longitude":3.232512,"timezone":"Europe/Paris","wikipedia":"https://fr.wikipedia.org/wiki/Saint-Maurice (Bas-Rhin)"}},{"id":"1282481614","status":"active","title":"Strammelse: Svendborgsund","location":{"city":"Strammelse","region":"Region of Southern Denmark","region_code":"DK.21","country":"Denmark","country_code":"DK","continent":"Europe","continent_code":"EU","latitude":55.041401,"longitude":10.572667,"timezone":"Europe/Copenhagen","wikipedia":"https://da.wikipedia.org/wiki/Strammelse"}},{"id":"1284652312","status":"active","title":"Hellevoetsluis","location":{"city":"Hellevoetsluis","region":"South Holland","region_code":"NL.11","country":"Netherlands","country_code":"NL","continent":"Europe","continent_code":"EU","latitude":51.822974,"longitude":4.128113,"timezone":"Europe/Amsterdam","wikipedia":"https://nl.wikipedia.org/wiki/Hellevoetsluis"}},{"id":"1285452347","status":"active","title":"Marina di Bibbona: Forte di Bibbona","location":{"city":"Marina di Bibbona","region":"Tuscany","region_code":"IT.16","country":"Italy","country_code":"IT","continent":"Europe","continent_code":"EU","latitude":43.238464,"longitude":10.529398,"timezone":"Europe/Rome","wikipedia":"https://it.wikipedia.org/wiki/Marina di Bibbona"}},{"id":"1285943537","status":"active","title":"Bystrice pod Hostynem: Main Square","location":{"city":"Bystrice pod Hostynem","region":"Central Moravia","region_code":"CZ.84","country":"Czechia","country_code":"CZ","continent":"Europe","continent_code":"EU","latitude":49.399589,"longitude":17.671959,"timezone":"Europe/Prague","wikipedia":"https://cs.wikipedia.org/wiki/Bystřice pod Hostýnem"}},{"id":"1286995448","status":"active","title":"Nussdorf: Donaupromenade Wien","location":{"city":"Nussdorf","region":"Tyrol","region_code":"AT.07","country":"Austria","country_code":"AT","continent":"Europe","continent_code":"EU","latitude":48.262678,"longitude":16.367462,"timezone":"Europe/Vienna","wikipedia":""}},{"id":"1287165646","status":"active","title":"Saluzzo: corso","location":{"city":"Saluzzo","region":"Piemont","region_code":"IT.12","country":"Italy","country_code":"IT","continent":"Europe","continent_code":"EU","latitude":44.645296,"longitude":7.491485,"timezone":"Europe/Rome","wikipedia":"https://it.wikipedia.org/wiki/Saluzzo"}},{"id":"1287165800","status":"active","title":"Saluzzo: piazza Vineis","location":{"city":"Saluzzo","region":"Piemont","region_code":"IT.12","country":"Italy","country_code":"IT","continent":"Europe","continent_code":"EU","latitude":44.64555,"longitude":7.490938,"timezone":"Europe/Rome","wikipedia":"https://it.wikipedia.org/wiki/Saluzzo"}},{"id":"1287988498","status":"active","title":"Munich: Hotel Kriemhild - Nymphenburg","location":{"city":"Munich","region":"Bavaria","region_code":"DE.02","country":"Germany","country_code":"DE","continent":"Europe","continent_code":"EU","latitude":48.152029,"longitude":11.511698,"timezone":"Europe/Berlin","wikipedia":"https://de.wikipedia.org/wiki/München"}},{"id":"1288963864","status":"active","title":"Kalambaka: Meteora Trikala","location":{"city":"Kalambaka","region":"Thessaly - Central Greece","region_code":"GR.ESYE24","country":"Greece","country_code":"GR","continent":"Europe","continent_code":"EU","latitude":39.716694,"longitude":21.63826,"timezone":"Europe/Athens","wikipedia":""}},{"id":"1290416545","status":"active","title":"Ostabat-Asme: Gamarthe","location":{"city":"Ostabat-Asme","region":"New Aquitaine","region_code":"FR.75","country":"France","country_code":"FR","continent":"Europe","continent_code":"EU","latitude":43.256568,"longitude":-1.07048,"timezone":"Europe/Paris","wikipedia":"https://fr.wikipedia.org/wiki/Ostabat-Asme"}},{"id":"1291397884","status":"active","title":"Vcelakov","location":{"city":"Vcelakov","region":"Northeast","region_code":"CZ.83","country":"Czechia","country_code":"CZ","continent":"Europe","continent_code":"EU","latitude":49.818788,"longitude":15.885281,"timezone":"Europe/Prague","wikipedia":"https://cs.wikipedia.org/wiki/Včelákov"}},{"id":"1291927847","status":"active","title":"Przemysl: Campus PWSW w Przemyślu","location":{"city":"Przemysl","region":"Subcarpathian Voivodeship","region_code":"PL.80","country":"Poland","country_code":"PL","continent":"Europe","continent_code":"EU","latitude":49.774849,"longitude":22.794571,"timezone":"Europe/Warsaw","wikipedia":"https://pl.wikipedia.org/wiki/Przemyśl"}},{"id":"1292473985","status":"active","title":"Port Elliot: Goolwa Wharf","location":{"city":"Port Elliot","region":"South Australia","region_code":"AU.05","country":"Australia","country_code":"AU","continent":"Oceania","continent_code":"OC","latitude":-35.503481,"longitude":138.785573,"timezone":"Australia/Adelaide","wikipedia":""}},{"id":"1292507849","status":"active","title":"Târgu Jiu › South: Coloana Infinitului","location":{"city":"Târgu Jiu","region":"Gorj","region_code":"KeejWeuD","country":"Romania","country_code":"RO","continent":"Europe","continent_code":"EU","latitude":45.038248,"longitude":23.285955,"timezone":"Europe/Bucharest","wikipedia":""}},{"id":"1292514936","status":"active","title":"Adelboden: Lohnerhütte","location":{"city":"Adelboden","region":"Bern","region_code":"CH.BE","country":"Switzerland","country_code":"CH","continent":"Europe","continent_code":"EU","latitude":46.487567,"longitude":7.562027,"timezone":"Europe/Zurich","wikipedia":"https://de.wikipedia.org/wiki/Adelboden"}},{"id":"1292514939","status":"active","title":"Adelboden: Ortsteil Gruebi,  m.ü.M","location":{"city":"Adelboden","region":"Bern","region_code":"CH.BE","country":"Switzerland","country_code":"CH","continent":"Europe","continent_code":"EU","latitude":46.493193,"longitude":7.555847,"timezone":"Europe/Zurich","wikipedia":"https://de.wikipedia.org/wiki/Adelboden"}},{"id":"1292515117","status":"active","title":"Bagnes: Verbier - Vallées - La Croix de Coeur","location":{"city":"Bagnes","region":"Valais","region_code":"CH.VS","country":"Switzerland","country_code":"CH","continent":"Europe","continent_code":"EU","latitude":46.122002,"longitude":7.23896,"timezone":"Europe/Zurich","wikipedia":"https://fr.wikipedia.org/wiki/Bagnes"}},{"id":"1292947496","status":"active","title":"Volterra: Piazza dei Priori","location":{"city":"Volterra","region":"Tuscany","region_code":"IT.16","country":"Italy","country_code":"IT","continent":"Europe","continent_code":"EU","latitude":43.402343,"longitude":10.86013,"timezone":"Europe/Rome","wikipedia":"https://it.wikipedia.org/wiki/Volterra"}},{"id":"1293180056","status":"active","title":"Oroshaza: downtown","location":{"city":"Oroshaza","region":"Southern Great Plain","region_code":"KeeuWc","country":"Hungary","country_code":"HU","continent":"Europe","continent_code":"EU","latitude":46.558041,"longitude":20.669746,"timezone":"Europe/Budapest","wikipedia":"https://hu.wikipedia.org/wiki/Orosháza"}},{"id":"1293533295","status":"active","title":"Warsaw: Old Town Market Place","location":{"city":"Warsaw","region":"Masovian Voivodeship","region_code":"PL.78","country":"Poland","country_code":"PL","continent":"Europe","continent_code":"EU","latitude":52.249533,"longitude":21.012597,"timezone":"Europe/Warsaw","wikipedia":""}},{"id":"1294394283","status":"active","title":"Saint-Jean-de-Sixt: Mont Durand","location":{"city":"Saint-Jean-de-Sixt","region":"Auvergne-Rhone-Alpes","region_code":"FR.84","country":"France","country_code":"FR","continent":"Europe","continent_code":"EU","latitude":45.919243,"longitude":6.420265,"timezone":"Europe/Paris","wikipedia":"https://fr.wikipedia.org/wiki/Saint-Jean-de-Sixt"}},{"id":"1295735358","status":"active","title":"Ponta Grossa: Residencia Wiecheteck","location":{"city":"Ponta Grossa","region":"Paraná","region_code":"BR.18","country":"Brazil","country_code":"BR","continent":"South America","continent_code":"SA","latitude":-25.08548,"longitude":-50.164588,"timezone":"America/Sao_Paulo","wikipedia":"https://pt.wikipedia.org/wiki/Ponta Grossa"}},{"id":"1295952627","status":"active","title":"Mikovice","location":{"city":"Mikovice","region":"Central Moravia","region_code":"CZ.84","country":"Czechia","country_code":"CZ","continent":"Europe","continent_code":"EU","latitude":49.037242,"longitude":17.503809,"timezone":"Europe/Prague","wikipedia":""}},{"id":"1296243842","status":"active","title":"Kelowna: The Krieg Family","location":{"city":"Kelowna","region":"British Columbia","region_code":"CA.02","country":"Canada","country_code":"CA","continent":"North America","continent_code":"NA","latitude":49.899299,"longitude":-119.476984,"timezone":"America/Vancouver","wikipedia":"https://en.wikipedia.org/wiki/Kelowna"}},{"id":"1296343777","status":"active","title":"Del Monte Forest: Pebble Beach","location":{"city":"Del Monte Forest","region":"California","region_code":"US.CA","country":"United States","country_code":"US","continent":"North America","continent_code":"NA","latitude":36.58265,"longitude":-121.958209,"timezone":"America/Los_Angeles","wikipedia":"https://en.wikipedia.org/wiki/Del Monte Forest, California"}}],[{"id":"1297187400","status":"active","title":"Chania: Πλατεια Δικαστηριων","location":{"city":"Chania","region":"Crete","region_code":"GR.ESYE43","country":"Greece","country_code":"GR","continent":"Europe","continent_code":"EU","latitude":35.509653,"longitude":24.030683,"timezone":"Europe/Athens","wikipedia":"https://el.wikipedia.org/wiki/Χανιά"}},{"id":"1297187740","status":"active","title":"Chania: ενετικο λιμανι","location":{"city":"Chania","region":"Crete","region_code":"GR.ESYE43","country":"Greece","country_code":"GR","continent":"Europe","continent_code":"EU","latitude":35.518395,"longitude":24.018688,"timezone":"Europe/Athens","wikipedia":"https://el.wikipedia.org/wiki/Χανιά"}},{"id":"1297374943","status":"active","title":"Assen › South: Weerstation","location":{"city":"Assen","region":"Drenthe","region_code":"NL.01","country":"Netherlands","country_code":"NL","continent":"Europe","continent_code":"EU","latitude":53.022962,"longitude":6.591601,"timezone":"Europe/Amsterdam","wikipedia":"https://nl.wikipedia.org/wiki/Assen"}},{"id":"1297606837","status":"active","title":"Pitești › East: Casa de Cultură","location":{"city":"Pitești","region":"Arges","region_code":"KeejWhWD","country":"Romania","country_code":"RO","continent":"Europe","continent_code":"EU","latitude":44.956295,"longitude":24.937763,"timezone":"Europe/Bucharest","wikipedia":""}},{"id":"1297607015","status":"active","title":"Pitești › North-East: Mioveni : Catedrala şi Bulevardul Dacia (Nord)","location":{"city":"Pitești","region":"Arges","region_code":"KeejWhWD","country":"Romania","country_code":"RO","continent":"Europe","continent_code":"EU","latitude":44.957625,"longitude":24.938101,"timezone":"Europe/Bucharest","wikipedia":""}},{"id":"1297607129","status":"active","title":"Pitești › North: Mioveni : Catedrala şi sensul giratoriu (km )","location":{"city":"Pitești","region":"Arges","region_code":"KeejWhWD","country":"Romania","country_code":"RO","continent":"Europe","continent_code":"EU","latitude":44.956813,"longitude":24.9372,"timezone":"Europe/Bucharest","wikipedia":""}},{"id":"1298391499","status":"active","title":"Bielawa: Rynek","location":{"city":"Bielawa","region":"Lower Silesian Voivodeship","region_code":"PL.72","country":"Poland","country_code":"PL","continent":"Europe","continent_code":"EU","latitude":50.684422,"longitude":16.61173,"timezone":"Europe/Warsaw","wikipedia":"https://pl.wikipedia.org/wiki/Bielawa"}},{"id":"1298480398","status":"active","title":"Ventspils: ski hill \"Lemberga hute","location":{"city":"Ventspils","region":"Courland","region_code":"LV.F1","country":"Latvia","country_code":"LV","continent":"Europe","continent_code":"EU","latitude":57.374343,"longitude":21.548159,"timezone":"Europe/Riga","wikipedia":"https://lv.wikipedia.org/wiki/Ventspils"}},{"id":"1298673830","status":"active","title":"Minto Landing: Sandpiper Golf Resort","location":{"city":"Minto Landing","region":"British Columbia","region_code":"CA.02","country":"Canada","country_code":"CA","continent":"North America","continent_code":"NA","latitude":49.255356,"longitude":-121.947062,"timezone":"America/Vancouver","wikipedia":""}},{"id":"1299032662","status":"active","title":"Buelach: beim Hotel Restaurant zum goldenen Kopf","location":{"city":"Buelach","region":"Zurich","region_code":"CH.ZH","country":"Switzerland","country_code":"CH","continent":"Europe","continent_code":"EU","latitude":47.518521,"longitude":8.54091,"timezone":"Europe/Zurich","wikipedia":"https://de.wikipedia.org/wiki/Bülach"}},{"id":"1299056837","status":"active","title":"Neuharlingersiel: Livespotting - Hafen Ost","location":{"city":"Neuharlingersiel","region":"Lower Saxony","region_code":"DE.06","country":"Germany","country_code":"DE","continent":"Europe","continent_code":"EU","latitude":53.699474,"longitude":7.703794,"timezone":"Europe/Berlin","wikipedia":"https://de.wikipedia.org/wiki/Neuharlingersiel"}},{"id":"1299583966","status":"active","title":"Bielawa: Aquarius, Góra Parkowa","location":{"city":"Bielawa","region":"Lower Silesian Voivodeship","region_code":"PL.72","country":"Poland","country_code":"PL","continent":"Europe","continent_code":"EU","latitude":50.682172,"longitude":16.616698,"timezone":"Europe/Warsaw","wikipedia":""}},{"id":"1299584991","status":"active","title":"Bielawa: kościół Wniebowzięcia NMP","location":{"city":"Bielawa","region":"Lower Silesian Voivodeship","region_code":"PL.72","country":"Poland","country_code":"PL","continent":"Europe","continent_code":"EU","latitude":50.682607,"longitude":16.617256,"timezone":"Europe/Warsaw","wikipedia":""}},{"id":"1299585280","status":"active","title":"Bielawa: panorama","location":{"city":"Bielawa","region":"Lower Silesian Voivodeship","region_code":"PL.72","country":"Poland","country_code":"PL","continent":"Europe","continent_code":"EU","latitude":50.687147,"longitude":16.616819,"timezone":"Europe/Warsaw","wikipedia":""}},{"id":"1299745209","status":"active","title":"Anykščiai: Kalita hill (toboggan run)","location":{"city":"Anykščiai","region":"Utena County","region_code":"LT.64","country":"Lithuania","country_code":"LT","continent":"Europe","continent_code":"EU","latitude":55.526189,"longitude":25.123758,"timezone":"Europe/Vilnius","wikipedia":"https://lt.wikipedia.org/wiki/Anykščiai"}},{"id":"1301375043","status":"active","title":"Hanover: Raschplatz","location":{"city":"Hanover","region":"Lower Saxony","region_code":"DE.06","country":"Germany","country_code":"DE","continent":"Europe","continent_code":"EU","latitude":52.379662,"longitude":9.743318,"timezone":"Europe/Berlin","wikipedia":"https://de.wikipedia.org/wiki/Hannover"}},{"id":"1302163429","status":"active","title":"RW 01: Gunung Sahari - Ps. Baru - Jakarta Pusat","location":{"city":"RW 01","region":"Jakarta Special Capital Region","region_code":"ID.04","country":"Indonesia","country_code":"ID","continent":null,"continent_code":null,"latitude":-6.160865,"longitude":106.837749,"timezone":"Asia/Jakarta","wikipedia":""}},{"id":"1302607195","status":"active","title":"Ennetburgen: Flugplatz Buochs LSZC richtung west Pilatus","location":{"city":"Ennetburgen","region":"Canton of Nidwalden","region_code":"CH.NW","country":"Switzerland","country_code":"CH","continent":"Europe","continent_code":"EU","latitude":46.971702,"longitude":8.401794,"timezone":"Europe/Zurich","wikipedia":"https://de.wikipedia.org/wiki/Ennetbürgen"}},{"id":"1302607271","status":"active","title":"Ennetburgen: Airport Buochs LSZC","location":{"city":"Ennetburgen","region":"Canton of Nidwalden","region_code":"CH.NW","country":"Switzerland","country_code":"CH","continent":"Europe","continent_code":"EU","latitude":46.971468,"longitude":8.401108,"timezone":"Europe/Zurich","wikipedia":"https://de.wikipedia.org/wiki/Ennetbürgen"}},{"id":"1302866148","status":"active","title":"Leobendorf: Kreuzenstein Castle","location":{"city":"Leobendorf","region":"Lower Austria","region_code":"AT.03","country":"Austria","country_code":"AT","continent":"Europe","continent_code":"EU","latitude":48.379767,"longitude":16.324739,"timezone":"Europe/Vienna","wikipedia":""}},{"id":"1302959392","status":"active","title":"Appenzell: Dorf","location":{"city":"Appenzell","region":"Appenzell Inner Rhodes","region_code":"CH.AI","country":"Switzerland","country_code":"CH","continent":"Europe","continent_code":"EU","latitude":47.330723,"longitude":9.408588,"timezone":"Europe/Zurich","wikipedia":"https://de.wikipedia.org/wiki/Appenzell (Bezirk)"}},{"id":"1303205841","status":"active","title":"Deiva Marina","location":{"city":"Deiva Marina","region":"Liguria","region_code":"IT.08","country":"Italy","country_code":"IT","continent":"Europe","continent_code":"EU","latitude":44.215072,"longitude":9.516783,"timezone":"Europe/Rome","wikipedia":"https://it.wikipedia.org/wiki/Deiva Marina"}},{"id":"1304555942","status":"active","title":"Grants Pass: Rogue River - OR","location":{"city":"Grants Pass","region":"Oregon","region_code":"US.OR","country":"United States","country_code":"US","continent":"North America","continent_code":"NA","latitude":42.430045,"longitude":-123.323593,"timezone":"America/Los_Angeles","wikipedia":"https://en.wikipedia.org/wiki/Grants Pass, Oregon"}},{"id":"1304578593","status":"active","title":"Alushta: Веб камера Алушта Профессорский уголок","location":{"city":"Alushta","region":"Autonomous Republic of Crimea","region_code":"UA.11","country":"Ukraine","country_code":"UA","continent":"Europe","continent_code":"EU","latitude":44.6541,"longitude":34.402292,"timezone":"Europe/Simferopol","wikipedia":"https://ru.wikipedia.org/wiki/Алушта"}},{"id":"1304925267","status":"active","title":"Vatra Dornei: Partia Veverita","location":{"city":"Vatra Dornei","region":"Suceava","region_code":"KeIuubjb","country":"Romania","country_code":"RO","continent":"Europe","continent_code":"EU","latitude":47.336274,"longitude":25.355684,"timezone":"Europe/Bucharest","wikipedia":""}},{"id":"1305404143","status":"active","title":"Utios: Николаевка Крым - Алушта п. Утес","location":{"city":"Utios","region":"Autonomous Republic of Crimea","region_code":"UA.11","country":"Ukraine","country_code":"UA","continent":"Europe","continent_code":"EU","latitude":44.594505,"longitude":34.371527,"timezone":"Europe/Simferopol","wikipedia":"https://uk.wikipedia.org/wiki/Утьос"}},{"id":"1306275691","status":"active","title":"Campobello di Mazara: Puzziteddu","location":{"city":"Campobello di Mazara","region":"Sicily","region_code":"IT.15","country":"Italy","country_code":"IT","continent":"Europe","continent_code":"EU","latitude":37.560092,"longitude":12.677643,"timezone":"Europe/Rome","wikipedia":"https://it.wikipedia.org/wiki/Campobello di Mazara"}},{"id":"1306335975","status":"active","title":"Sant Vicenc de Montalt: St. Vicenç de Montalt (Montaña)","location":{"city":"Sant Vicenc de Montalt","region":"Catalonia","region_code":"ES.56","country":"Spain","country_code":"ES","continent":"Europe","continent_code":"EU","latitude":41.578234,"longitude":2.509467,"timezone":"Europe/Madrid","wikipedia":"https://ca.wikipedia.org/wiki/Sant Vicenç de Montalt"}},{"id":"1306421822","status":"active","title":"Moscow: МОСКОВСКИЙ ГОСУДАРСТВЕННЫЙ СТРОИТЕЛЬНЫЙ УНИВЕРСИТЕТ","location":{"city":"Moscow","region":"Moscow","region_code":"RU.48","country":"Russia","country_code":"RU","continent":"Europe","continent_code":"EU","latitude":55.855927,"longitude":37.688039,"timezone":"Europe/Moscow","wikipedia":""}},{"id":"1306944075","status":"active","title":"Kardamyli: alter Hafen","location":{"city":"Kardamyli","region":"Peloponnese, West Greece and Ionian Sea","region_code":"GR.ESYE25","country":"Greece","country_code":"GR","continent":"Europe","continent_code":"EU","latitude":36.884551,"longitude":22.235899,"timezone":"Europe/Athens","wikipedia":""}},{"id":"1307697744","status":"active","title":"Lahr: Steuerbare webcam aus Menden im Sauerland","location":{"city":"Lahr","region":"Baden-Württemberg","region_code":"DE.01","country":"Germany","country_code":"DE","continent":"Europe","continent_code":"EU","latitude":51.438723,"longitude":7.799832,"timezone":"Europe/Berlin","wikipedia":"https://de.wikipedia.org/wiki/Lahr/Schwarzwald"}},{"id":"1307708880","status":"active","title":"Stabio: ROTOFIL fabrics SA","location":{"city":"Stabio","region":"Canton Ticino","region_code":"CH.TI","country":"Switzerland","country_code":"CH","continent":"Europe","continent_code":"EU","latitude":45.841656,"longitude":8.922486,"timezone":"Europe/Zurich","wikipedia":"https://it.wikipedia.org/wiki/Stabio"}},{"id":"1309510027","status":"active","title":"Kamøyvær: Nordkapp Havfiske","location":{"city":"Kamøyvær","region":"Finnmark","region_code":"KgIjhbc","country":"Norway","country_code":"NO","continent":"Europe","continent_code":"EU","latitude":71.048052,"longitude":25.906352,"timezone":"Europe/Oslo","wikipedia":""}},{"id":"1309521114","status":"active","title":"Asak: Skedsmo Rådhus","location":{"city":"Asak","region":"Akershus","region_code":"KgIjWIj","country":"Norway","country_code":"NO","continent":"Europe","continent_code":"EU","latitude":59.954237,"longitude":11.040316,"timezone":"Europe/Oslo","wikipedia":""}},{"id":"1309685432","status":"active","title":"Tromsø: Weather Live in","location":{"city":"Tromsø","region":"Troms","region_code":"KgIuuWu","country":"Norway","country_code":"NO","continent":"Europe","continent_code":"EU","latitude":69.642938,"longitude":18.985362,"timezone":"Europe/Oslo","wikipedia":"https://en.wikipedia.org/wiki/Tromsø"}},{"id":"1309907012","status":"active","title":"Gautefall: Alpinsenter","location":{"city":"Gautefall","region":"Telemark","region_code":"KgIDWDj","country":"Norway","country_code":"NO","continent":"Europe","continent_code":"EU","latitude":59.059867,"longitude":8.722544,"timezone":"Europe/Oslo","wikipedia":""}},{"id":"1310186838","status":"active","title":"Renfors: Vindelälven från västra stranden i Vindeln","location":{"city":"Renfors","region":"Västerbotten County","region_code":"SE.23","country":"Sweden","country_code":"SE","continent":"Europe","continent_code":"EU","latitude":64.209066,"longitude":19.700546,"timezone":"Europe/Stockholm","wikipedia":""}},{"id":"1310313799","status":"active","title":"Mauthausen: Heindlkai - Donau Bundesstraße","location":{"city":"Mauthausen","region":"Upper Austria","region_code":"AT.04","country":"Austria","country_code":"AT","continent":"Europe","continent_code":"EU","latitude":48.241024,"longitude":14.513969,"timezone":"Europe/Vienna","wikipedia":"https://de.wikipedia.org/wiki/Mauthausen"}},{"id":"1310643014","status":"active","title":"Mersrags: yachtclub","location":{"city":"Mersrags","region":"Courland","region_code":"LV.F1","country":"Latvia","country_code":"LV","continent":"Europe","continent_code":"EU","latitude":57.334884,"longitude":23.128452,"timezone":"Europe/Riga","wikipedia":""}},{"id":"1310893784","status":"active","title":"Vrouwenpolder: Strand","location":{"city":"Vrouwenpolder","region":"Zeeland","region_code":"NL.10","country":"Netherlands","country_code":"NL","continent":"Europe","continent_code":"EU","latitude":51.58731,"longitude":3.619308,"timezone":"Europe/Amsterdam","wikipedia":""}},{"id":"1310908315","status":"active","title":"Rotenburg: Wümme EDXQ - Kleiner Tower","location":{"city":"Rotenburg","region":"Lower Saxony","region_code":"DE.06","country":"Germany","country_code":"DE","continent":"Europe","continent_code":"EU","latitude":53.131215,"longitude":9.353818,"timezone":"Europe/Berlin","wikipedia":"https://de.wikipedia.org/wiki/Rotenburg (Wümme)"}},{"id":"1310986289","status":"active","title":"Kristiansand: Grovane stasjon","location":{"city":"Kristiansand","region":"West Agder","region_code":"KgIDcec","country":"Norway","country_code":"NO","continent":"Europe","continent_code":"EU","latitude":58.295097,"longitude":7.980355,"timezone":"Europe/Oslo","wikipedia":"https://en.wikipedia.org/wiki/Kristiansand"}},{"id":"1311753269","status":"active","title":"Giżycko: Giżyckie kamery","location":{"city":"Giżycko","region":"Warmian-Masurian Voivodeship","region_code":"PL.85","country":"Poland","country_code":"PL","continent":"Europe","continent_code":"EU","latitude":54.036173,"longitude":21.761078,"timezone":"Europe/Warsaw","wikipedia":"https://pl.wikipedia.org/wiki/Giżycko"}},{"id":"1312533981","status":"active","title":"Legnica: Legnicki Rynek www - eu","location":{"city":"Legnica","region":"Lower Silesian Voivodeship","region_code":"PL.72","country":"Poland","country_code":"PL","continent":"Europe","continent_code":"EU","latitude":51.208238,"longitude":16.159422,"timezone":"Europe/Warsaw","wikipedia":"https://pl.wikipedia.org/wiki/Legnica"}},{"id":"1313762457","status":"active","title":"St. Stefan-Afiesl: St.Stefan am Walde - Traumarena","location":{"city":"St. Stefan-Afiesl","region":"Upper Austria","region_code":"AT.04","country":"Austria","country_code":"AT","continent":"Europe","continent_code":"EU","latitude":48.576416,"longitude":14.111938,"timezone":"Europe/Vienna","wikipedia":"https://de.wikipedia.org/wiki/St. Stefan-Afiesl"}},{"id":"1314882012","status":"active","title":"Neuharlingersiel: Livespotting - Hafen West","location":{"city":"Neuharlingersiel","region":"Lower Saxony","region_code":"DE.06","country":"Germany","country_code":"DE","continent":"Europe","continent_code":"EU","latitude":53.70005,"longitude":7.70277,"timezone":"Europe/Berlin","wikipedia":"https://de.wikipedia.org/wiki/Neuharlingersiel"}},{"id":"1314882352","status":"active","title":"Neuharlingersiel: Livespotting - Panorama","location":{"city":"Neuharlingersiel","region":"Lower Saxony","region_code":"DE.06","country":"Germany","country_code":"DE","continent":"Europe","continent_code":"EU","latitude":53.70047,"longitude":7.704408,"timezone":"Europe/Berlin","wikipedia":"https://de.wikipedia.org/wiki/Neuharlingersiel"}},{"id":"1316937736","status":"active","title":"Heerhugowaard: weerheerhugowaard","location":{"city":"Heerhugowaard","region":"North Holland","region_code":"NL.07","country":"Netherlands","country_code":"NL","continent":"Europe","continent_code":"EU","latitude":52.640736,"longitude":4.822977,"timezone":"Europe/Amsterdam","wikipedia":"https://nl.wikipedia.org/wiki/Heerhugowaard"}},{"id":"1317062488","status":"active","title":"Degerfors: Golfklubb Degernäs","location":{"city":"Degerfors","region":"Örebro County","region_code":"SE.15","country":"Sweden","country_code":"SE","continent":"Europe","continent_code":"EU","latitude":59.25443,"longitude":14.452343,"timezone":"Europe/Stockholm","wikipedia":""}},{"id":"1317282551","status":"active","title":"Hestoft: Webcam Marina Hülsen","location":{"city":"Hestoft","region":"Schleswig-Holstein","region_code":"DE.10","country":"Germany","country_code":"DE","continent":"Europe","continent_code":"EU","latitude":54.545957,"longitude":9.749143,"timezone":"Europe/Berlin","wikipedia":""}}],[{"id":"1317282970","status":"active","title":"Hestoft: Kosel - Marina Hülsen","location":{"city":"Hestoft","region":"Schleswig-Holstein","region_code":"DE.10","country":"Germany","country_code":"DE","continent":"Europe","continent_code":"EU","latitude":54.547438,"longitude":9.753714,"timezone":"Europe/Berlin","wikipedia":""}},{"id":"1317997308","status":"active","title":"Galtur: Pyramide","location":{"city":"Galtur","region":"Vorarlberg","region_code":"AT.08","country":"Austria","country_code":"AT","continent":"Europe","continent_code":"EU","latitude":46.967603,"longitude":10.182937,"timezone":"Europe/Vienna","wikipedia":"https://de.wikipedia.org/wiki/Galtür"}},{"id":"1318664764","status":"active","title":"Denizli: Beşikdüzü","location":{"city":"Denizli","region":"Trabzon","region_code":"TR.61","country":"Turkey","country_code":"TR","continent":"Asia","continent_code":"AS","latitude":41.052928,"longitude":39.231877,"timezone":"Europe/Istanbul","wikipedia":""}},{"id":"1319030354","status":"active","title":"Sant Jaume de Llierca: Aerodromo de Tapioles (La Garrotxa)","location":{"city":"Sant Jaume de Llierca","region":"Catalonia","region_code":"ES.56","country":"Spain","country_code":"ES","continent":"Europe","continent_code":"EU","latitude":42.224068,"longitude":2.622128,"timezone":"Europe/Madrid","wikipedia":"https://ca.wikipedia.org/wiki/Sant Jaume de Llierca"}},{"id":"1319464937","status":"active","title":"Ramenskoye: Фабричная","location":{"city":"Ramenskoye","region":"Moscow Oblast","region_code":"RU.47","country":"Russia","country_code":"RU","continent":"Europe","continent_code":"EU","latitude":55.576016,"longitude":38.206522,"timezone":"Europe/Moscow","wikipedia":"https://ru.wikipedia.org/wiki/Раменское"}},{"id":"1320658122","status":"active","title":"Ischia: Centro - Salita San Pietro","location":{"city":"Ischia","region":"Campania","region_code":"IT.04","country":"Italy","country_code":"IT","continent":"Europe","continent_code":"EU","latitude":40.742055,"longitude":13.9468,"timezone":"Europe/Rome","wikipedia":"https://it.wikipedia.org/wiki/Ischia (Italia)"}},{"id":"1320658290","status":"active","title":"Ischia: Centro - Panorama costa ENE","location":{"city":"Ischia","region":"Campania","region_code":"IT.04","country":"Italy","country_code":"IT","continent":"Europe","continent_code":"EU","latitude":40.741795,"longitude":13.946972,"timezone":"Europe/Rome","wikipedia":"https://it.wikipedia.org/wiki/Ischia (Italia)"}},{"id":"1322919566","status":"active","title":"Matane: Mont Castor","location":{"city":"Matane","region":"Quebec","region_code":"CA.10","country":"Canada","country_code":"CA","continent":"North America","continent_code":"NA","latitude":48.768014,"longitude":-67.543902,"timezone":"America/Toronto","wikipedia":""}},{"id":"1323502947","status":"active","title":"Vesisaari: Porto","location":{"city":"Vesisaari","region":"Finnmark","region_code":"KgIjhbc","country":"Norway","country_code":"NO","continent":"Europe","continent_code":"EU","latitude":70.070383,"longitude":29.738617,"timezone":"Europe/Oslo","wikipedia":""}},{"id":"1324130012","status":"active","title":"Akureyri","location":{"city":"Akureyri","region":"Akureyrarkaupstaur","region_code":"","country":"Iceland","country_code":"IS","continent":"Europe","continent_code":"EU","latitude":65.679674,"longitude":-18.091897,"timezone":"Atlantic/Reykjavik","wikipedia":"https://en.wikipedia.org/wiki/Akureyri"}},{"id":"1324462881","status":"active","title":"Spangsbro: Fjorden i Kalundborg","location":{"city":"Spangsbro","region":"Region Zealand","region_code":"DK.20","country":"Denmark","country_code":"DK","continent":"Europe","continent_code":"EU","latitude":55.696846,"longitude":11.044411,"timezone":"Europe/Copenhagen","wikipedia":"https://da.wikipedia.org/wiki/Spangsbro"}},{"id":"1324904011","status":"active","title":"Oeventrop: ARNSBERG BLICK IN DAS SAUERLAND","location":{"city":"Oeventrop","region":"North Rhine-Westphalia","region_code":"DE.07","country":"Germany","country_code":"DE","continent":"Europe","continent_code":"EU","latitude":51.405417,"longitude":8.140354,"timezone":"Europe/Berlin","wikipedia":""}},{"id":"1324968477","status":"active","title":"Molėtai: Savivaldybės aikštė","location":{"city":"Molėtai","region":"Utena County","region_code":"LT.64","country":"Lithuania","country_code":"LT","continent":"Europe","continent_code":"EU","latitude":55.23125,"longitude":25.41923,"timezone":"Europe/Vilnius","wikipedia":"https://lt.wikipedia.org/wiki/Molėtai"}},{"id":"1325595119","status":"active","title":"Sunnybank: Smith Point Marina Gas Dock","location":{"city":"Sunnybank","region":"Virginia","region_code":"US.VA","country":"United States","country_code":"US","continent":"North America","continent_code":"NA","latitude":37.883728,"longitude":-76.251061,"timezone":"America/New_York","wikipedia":""}},{"id":"1325856641","status":"active","title":"Neustadt b.Coburg: Coburg: Marktplatz","location":{"city":"Neustadt b.Coburg","region":"Bavaria","region_code":"DE.02","country":"Germany","country_code":"DE","continent":"Europe","continent_code":"EU","latitude":50.270571,"longitude":10.959549,"timezone":"Europe/Berlin","wikipedia":"https://de.wikipedia.org/wiki/Neustadt bei Coburg"}},{"id":"1326132323","status":"active","title":"Bad Teinach-Zavelstein: ScheffelCam","location":{"city":"Bad Teinach-Zavelstein","region":"Baden-Württemberg","region_code":"DE.01","country":"Germany","country_code":"DE","continent":"Europe","continent_code":"EU","latitude":48.692533,"longitude":8.71115,"timezone":"Europe/Berlin","wikipedia":"https://de.wikipedia.org/wiki/Bad Teinach-Zavelstein"}},{"id":"1326731564","status":"active","title":"Vilopriu: Aerodromo Vilademat","location":{"city":"Vilopriu","region":"Catalonia","region_code":"ES.56","country":"Spain","country_code":"ES","continent":"Europe","continent_code":"EU","latitude":42.118471,"longitude":2.992058,"timezone":"Europe/Madrid","wikipedia":"https://es.wikipedia.org/wiki/Vilopriu"}},{"id":"1326978356","status":"active","title":"Sakyo Ward: 京都鞍馬 由岐神社","location":{"city":"Sakyo Ward","region":"Kyoto Prefecture","region_code":"JP.22","country":"Japan","country_code":"JP","continent":"Asia","continent_code":"AS","latitude":35.116196,"longitude":135.771468,"timezone":"Asia/Tokyo","wikipedia":""}},{"id":"1327000486","status":"active","title":"Szczecinek: ul.  maja","location":{"city":"Szczecinek","region":"West Pomeranian Voivodeship","region_code":"PL.87","country":"Poland","country_code":"PL","continent":"Europe","continent_code":"EU","latitude":53.709548,"longitude":16.693726,"timezone":"Europe/Warsaw","wikipedia":"https://pl.wikipedia.org/wiki/Szczecinek"}},{"id":"1328874723","status":"active","title":"Losser: Dinkel, Bossinkbrug","location":{"city":"Losser","region":"Overijssel","region_code":"NL.15","country":"Netherlands","country_code":"NL","continent":"Europe","continent_code":"EU","latitude":52.262353,"longitude":7.019513,"timezone":"Europe/Amsterdam","wikipedia":"https://nl.wikipedia.org/wiki/Losser (gemeente)"}},{"id":"1329058732","status":"active","title":"Portsmouth: Memorial Bridge from Kittery, Maine","location":{"city":"Portsmouth","region":"New Hampshire","region_code":"US.NH","country":"United States","country_code":"US","continent":"North America","continent_code":"NA","latitude":43.081552,"longitude":-70.755215,"timezone":"America/New_York","wikipedia":"https://en.wikipedia.org/wiki/Portsmouth, New Hampshire"}},{"id":"1329226563","status":"active","title":"Bad Soden-Salmunster › West: URJUs LiveCam aus","location":{"city":"Bad Soden-Salmunster","region":"Hesse","region_code":"DE.05","country":"Germany","country_code":"DE","continent":"Europe","continent_code":"EU","latitude":50.280559,"longitude":9.3742,"timezone":"Europe/Berlin","wikipedia":"https://de.wikipedia.org/wiki/Bad Soden-Salmünster"}},{"id":"1329513246","status":"active","title":"Kanjiza: MOBOTIX D- mx ---","location":{"city":"Kanjiza","region":"Vojvodina","region_code":"RS.VO","country":"Serbia","country_code":"RS","continent":"Europe","continent_code":"EU","latitude":46.060814,"longitude":20.058889,"timezone":"Europe/Belgrade","wikipedia":""}},{"id":"1329759459","status":"active","title":"Korosladany: Petőfi tér","location":{"city":"Korosladany","region":"Southern Great Plain","region_code":"KeeuWc","country":"Hungary","country_code":"HU","continent":"Europe","continent_code":"EU","latitude":46.956671,"longitude":21.081664,"timezone":"Europe/Budapest","wikipedia":"https://hu.wikipedia.org/wiki/Körösladány"}},{"id":"1329829741","status":"active","title":"Scopa: Muro","location":{"city":"Scopa","region":"Piemont","region_code":"IT.12","country":"Italy","country_code":"IT","continent":"Europe","continent_code":"EU","latitude":45.798529,"longitude":8.11615,"timezone":"Europe/Rome","wikipedia":"https://it.wikipedia.org/wiki/Scopa (Italia)"}},{"id":"1330416033","status":"active","title":"Legnica: Legnicki Rynek  www - eu","location":{"city":"Legnica","region":"Lower Silesian Voivodeship","region_code":"PL.72","country":"Poland","country_code":"PL","continent":"Europe","continent_code":"EU","latitude":51.195013,"longitude":16.178731,"timezone":"Europe/Warsaw","wikipedia":"https://pl.wikipedia.org/wiki/Legnica"}},{"id":"1330608539","status":"active","title":"Muonio: Harriniva Hotel in","location":{"city":"Muonio","region":"Northern Finland","region_code":"FI.16","country":"Finland","country_code":"FI","continent":"Europe","continent_code":"EU","latitude":67.9323,"longitude":23.656912,"timezone":"Europe/Helsinki","wikipedia":"https://fi.wikipedia.org/wiki/Muonio"}},{"id":"1330679293","status":"active","title":"Villarcayo de Merindad de Castilla la Vieja: Web cam Villarcayo","location":{"city":"Villarcayo de Merindad de Castilla la Vieja","region":"Castile and León","region_code":"ES.55","country":"Spain","country_code":"ES","continent":"Europe","continent_code":"EU","latitude":42.93957,"longitude":-3.571587,"timezone":"Europe/Madrid","wikipedia":"https://es.wikipedia.org/wiki/Villarcayo de Merindad de Castilla la Vieja"}},{"id":"1330856756","status":"active","title":"Bredsel: Storforsen, Älvsbyn","location":{"city":"Bredsel","region":"Norrbotten County","region_code":"SE.14","country":"Sweden","country_code":"SE","continent":"Europe","continent_code":"EU","latitude":65.856691,"longitude":20.422824,"timezone":"Europe/Stockholm","wikipedia":""}},